{
"type": "FeatureCollection",
"name": "speed_devices",
"features": [
{ "type": "Feature", "properties": { "device_id": 1, "source_layer": "Speed Display Sign", "device_type": "Speed Display Sign", "install_year": 2021, "location": "1196 Riverside Dr" }, "geometry": { "type": "Point", "coordinates": [ -63.685253, 44.774491 ] } },
{ "type": "Feature", "properties": { "device_id": 2, "source_layer": "Speed Display Sign", "device_type": "Speed Display Sign", "install_year": 2021, "location": "1196 Riverside Drive" }, "geometry": { "type": "Point", "coordinates": [ -63.685253, 44.774491 ] } },
{ "type": "Feature", "properties": { "device_id": 3, "source_layer": "Speed Display Sign", "device_type": "Speed Display Sign", "install_year": 2021, "location": "1271 Riverside Dr" }, "geometry": { "type": "Point", "coordinates": [ -63.683723, 44.776174 ] } },
{ "type": "Feature", "properties": { "device_id": 4, "source_layer": "Speed Display Sign", "device_type": "Speed Display Sign", "install_year": 2021, "location": "1271 Riverside Drive" }, "geometry": { "type": "Point", "coordinates": [ -63.683723, 44.776174 ] } },
{ "type": "Feature", "properties": { "device_id": 5, "source_layer": "Speed Display Sign", "device_type": "Speed Display Sign", "install_year": 2021, "location": "1357 St Margarets Bay Rd" }, "geometry": { "type": "Point", "coordinates": [ -63.69234, 44.638241 ] } },
{ "type": "Feature", "properties": { "device_id": 6, "source_layer": "Speed Display Sign", "device_type": "Speed Display Sign", "install_year": 2021, "location": "151 Starboard Dr" }, "geometry": { "type": "Point", "coordinates": [ -63.671117, 44.695905 ] } },
{ "type": "Feature", "properties": { "device_id": 7, "source_layer": "Speed Display Sign", "device_type": "Speed Display Sign", "install_year": 2021, "location": "211 Hammonds Plains Rd" }, "geometry": { "type": "Point", "coordinates": [ -63.687466, 44.720369 ] } },
{ "type": "Feature", "properties": { "device_id": 8, "source_layer": "Speed Display Sign", "device_type": "Speed Display Sign", "install_year": 2021, "location": "2455 Waverley Rd" }, "geometry": { "type": "Point", "coordinates": [ -63.599841, 44.787129 ] } },
{ "type": "Feature", "properties": { "device_id": 9, "source_layer": "Speed Display Sign", "device_type": "Speed Display Sign", "install_year": 2021, "location": "319 Waverley Rd" }, "geometry": { "type": "Point", "coordinates": [ -63.549538, 44.70666 ] } },
{ "type": "Feature", "properties": { "device_id": 10, "source_layer": "Speed Display Sign", "device_type": "Speed Display Sign", "install_year": 2021, "location": "345 Pleasant St" }, "geometry": { "type": "Point", "coordinates": [ -63.546978, 44.651226 ] } },
{ "type": "Feature", "properties": { "device_id": 11, "source_layer": "Speed Display Sign", "device_type": "Speed Display Sign", "install_year": 2021, "location": "37 Montebello Dr" }, "geometry": { "type": "Point", "coordinates": [ -63.542681, 44.697692 ] } },
{ "type": "Feature", "properties": { "device_id": 12, "source_layer": "Speed Display Sign", "device_type": "Speed Display Sign", "install_year": 2021, "location": "37 Montebello Drive" }, "geometry": { "type": "Point", "coordinates": [ -63.542681, 44.697692 ] } },
{ "type": "Feature", "properties": { "device_id": 13, "source_layer": "Speed Display Sign", "device_type": "Speed Display Sign", "install_year": 2021, "location": "37 Pockwock Rd" }, "geometry": { "type": "Point", "coordinates": [ -63.794359, 44.736935 ] } },
{ "type": "Feature", "properties": { "device_id": 14, "source_layer": "Speed Display Sign", "device_type": "Speed Display Sign", "install_year": 2021, "location": "7000 Quinpool Rd" }, "geometry": { "type": "Point", "coordinates": [ -63.613314, 44.640317 ] } },
{ "type": "Feature", "properties": { "device_id": 15, "source_layer": "Speed Display Sign", "device_type": "Speed Display Sign", "install_year": 2021, "location": "72 Lacewood Dr" }, "geometry": { "type": "Point", "coordinates": [ -63.641441, 44.662279 ] } },
{ "type": "Feature", "properties": { "device_id": 16, "source_layer": "Speed Display Sign", "device_type": "Speed Display Sign", "install_year": 2021, "location": "98B Woodlawn Rd" }, "geometry": { "type": "Point", "coordinates": [ -63.528957, 44.674833 ] } },
{ "type": "Feature", "properties": { "device_id": 17, "source_layer": "Speed Display Sign", "device_type": "Speed Display Sign", "install_year": 2021, "location": "Between 51 & 81 Parkland Dr" }, "geometry": { "type": "Point", "coordinates": [ -63.670088, 44.660636 ] } },
{ "type": "Feature", "properties": { "device_id": 18, "source_layer": "Speed Display Sign", "device_type": "Speed Display Sign", "install_year": 2021, "location": "Dunbrack St north of 102" }, "geometry": { "type": "Point", "coordinates": [ -63.649123, 44.648726 ] } },
{ "type": "Feature", "properties": { "device_id": 19, "source_layer": "Speed Display Sign", "device_type": "Speed Display Sign", "install_year": 2021, "location": "Intersection of Hwy 7 and Lorne" }, "geometry": { "type": "Point", "coordinates": [ -63.462661, 44.705059 ] } },
{ "type": "Feature", "properties": { "device_id": 20, "source_layer": "Speed Display Sign", "device_type": "Speed Display Sign", "install_year": 2021, "location": "Shore Road at Oceanlea Drive" }, "geometry": { "type": "Point", "coordinates": [ -63.482365, 44.606121 ] } },
{ "type": "Feature", "properties": { "device_id": 21, "source_layer": "Speed Display Sign", "device_type": "Speed Display Sign", "install_year": 2021, "location": "Shore Road at Oceanlea Drive" }, "geometry": { "type": "Point", "coordinates": [ -63.482365, 44.606121 ] } },
{ "type": "Feature", "properties": { "device_id": 22, "source_layer": "Speed Display Sign", "device_type": "Speed Display Sign", "install_year": 2023, "location": "111 Dorothea Drive" }, "geometry": { "type": "Point", "coordinates": [ -63.514525, 44.677698 ] } },
{ "type": "Feature", "properties": { "device_id": 23, "source_layer": "Speed Display Sign", "device_type": "Speed Display Sign", "install_year": 2023, "location": "28 Flamingo Drive" }, "geometry": { "type": "Point", "coordinates": [ -63.650697, 44.673453 ] } },
{ "type": "Feature", "properties": { "device_id": 24, "source_layer": "Speed Display Sign", "device_type": "Speed Display Sign", "install_year": 2023, "location": "28 Flamingo Drive" }, "geometry": { "type": "Point", "coordinates": [ -63.650697, 44.673453 ] } },
{ "type": "Feature", "properties": { "device_id": 25, "source_layer": "Speed Display Sign", "device_type": "Speed Display Sign", "install_year": 2023, "location": "3170 St Margarets Bay Rd, Inbound" }, "geometry": { "type": "Point", "coordinates": [ -63.777271, 44.671091 ] } },
{ "type": "Feature", "properties": { "device_id": 26, "source_layer": "Speed Display Sign", "device_type": "Speed Display Sign", "install_year": 2023, "location": "73 Bayview Road" }, "geometry": { "type": "Point", "coordinates": [ -63.643728, 44.667749 ] } },
{ "type": "Feature", "properties": { "device_id": 27, "source_layer": "Speed Display Sign", "device_type": "Speed Display Sign", "install_year": 2023, "location": "73 Bayview Road" }, "geometry": { "type": "Point", "coordinates": [ -63.643728, 44.667749 ] } },
{ "type": "Feature", "properties": { "device_id": 28, "source_layer": "Speed Display Sign", "device_type": "Speed Display Sign", "install_year": 2023, "location": "950 Dutch Settlement Rd" }, "geometry": { "type": "Point", "coordinates": [ -63.44195, 44.990293 ] } },
{ "type": "Feature", "properties": { "device_id": 29, "source_layer": "Speed Display Sign", "device_type": "Speed Display Sign", "install_year": 2023, "location": "950 Dutch Settlement Road" }, "geometry": { "type": "Point", "coordinates": [ -63.44195, 44.990293 ] } },
{ "type": "Feature", "properties": { "device_id": 30, "source_layer": "Speed Display Sign", "device_type": "Speed Display Sign", "install_year": 2023, "location": "999 Dutch Settlement Rd" }, "geometry": { "type": "Point", "coordinates": [ -63.439982, 44.992347 ] } },
{ "type": "Feature", "properties": { "device_id": 31, "source_layer": "Speed Display Sign", "device_type": "Speed Display Sign", "install_year": 2023, "location": "999 Dutch Settlement Road" }, "geometry": { "type": "Point", "coordinates": [ -63.439982, 44.992347 ] } },
{ "type": "Feature", "properties": { "device_id": 32, "source_layer": "Speed Display Sign", "device_type": "Speed Display Sign", "install_year": 2023, "location": "Hammonds Plains Road before Pockwock Road" }, "geometry": { "type": "Point", "coordinates": [ -63.797366, 44.735296 ] } },
{ "type": "Feature", "properties": { "device_id": 33, "source_layer": "Speed Display Sign", "device_type": "Speed Display Sign", "install_year": 2023, "location": "Joseph Howe Drive before Armdale Roundabout" }, "geometry": { "type": "Point", "coordinates": [ -63.625719, 44.64463 ] } },
{ "type": "Feature", "properties": { "device_id": 34, "source_layer": "Speed Display Sign", "device_type": "Speed Display Sign", "install_year": 2023, "location": "Leiblin Drive near Civic 110" }, "geometry": { "type": "Point", "coordinates": [ -63.631305, 44.599833 ] } },
{ "type": "Feature", "properties": { "device_id": 35, "source_layer": "Speed Display Sign", "device_type": "Speed Display Sign", "install_year": 2023, "location": "Oxford Street before Coburg Road" }, "geometry": { "type": "Point", "coordinates": [ -63.596323, 44.637034 ] } },
{ "type": "Feature", "properties": { "device_id": 36, "source_layer": "Speed Display Sign", "device_type": "Speed Display Sign", "install_year": 2023, "location": "Prince Albert Road, Inbound" }, "geometry": { "type": "Point", "coordinates": [ -63.554957, 44.678379 ] } },
{ "type": "Feature", "properties": { "device_id": 37, "source_layer": "Speed Display Sign", "device_type": "Speed Display Sign", "install_year": 2023, "location": "Robie Street south of South Street" }, "geometry": { "type": "Point", "coordinates": [ -63.584224, 44.635425 ] } },
{ "type": "Feature", "properties": { "device_id": 38, "source_layer": "Speed Display Sign", "device_type": "Speed Display Sign", "install_year": 2023, "location": "Washmill Lake Dr between Bently & Main, EB" }, "geometry": { "type": "Point", "coordinates": [ -63.656001, 44.649827 ] } },
{ "type": "Feature", "properties": { "device_id": 39, "source_layer": "Speed Display Sign", "device_type": "Speed Display Sign", "install_year": 2023, "location": "Waverley Rd near civic 959 (inbound)" }, "geometry": { "type": "Point", "coordinates": [ -63.551121, 44.736472 ] } },
{ "type": "Feature", "properties": { "device_id": 40, "source_layer": "Speed Display Sign", "device_type": "Speed Display Sign", "install_year": 2025, "location": "1020 Montague Road" }, "geometry": { "type": "Point", "coordinates": [ -63.528399, 44.723065 ] } },
{ "type": "Feature", "properties": { "device_id": 41, "source_layer": "Speed Display Sign", "device_type": "Speed Display Sign", "install_year": 2025, "location": "124 Montague Road" }, "geometry": { "type": "Point", "coordinates": [ -63.497374, 44.701674 ] } },
{ "type": "Feature", "properties": { "device_id": 42, "source_layer": "Speed Display Sign", "device_type": "Speed Display Sign", "install_year": 2025, "location": "126 Beaver Bank Road" }, "geometry": { "type": "Point", "coordinates": [ -63.69216, 44.786137 ] } },
{ "type": "Feature", "properties": { "device_id": 43, "source_layer": "Speed Display Sign", "device_type": "Speed Display Sign", "install_year": 2025, "location": "1303 Fall River Road" }, "geometry": { "type": "Point", "coordinates": [ -63.616666, 44.811536 ] } },
{ "type": "Feature", "properties": { "device_id": 44, "source_layer": "Speed Display Sign", "device_type": "Speed Display Sign", "install_year": 2025, "location": "15 Briarwood Drive" }, "geometry": { "type": "Point", "coordinates": [ -63.486063, 44.612328 ] } },
{ "type": "Feature", "properties": { "device_id": 45, "source_layer": "Speed Display Sign", "device_type": "Speed Display Sign", "install_year": 2025, "location": "1709 Cole Harbour Road" }, "geometry": { "type": "Point", "coordinates": [ -63.459743, 44.679436 ] } },
{ "type": "Feature", "properties": { "device_id": 46, "source_layer": "Speed Display Sign", "device_type": "Speed Display Sign", "install_year": 2025, "location": "183 Crichton Avenue" }, "geometry": { "type": "Point", "coordinates": [ -63.563012, 44.680123 ] } },
{ "type": "Feature", "properties": { "device_id": 47, "source_layer": "Speed Display Sign", "device_type": "Speed Display Sign", "install_year": 2025, "location": "19 Drysdale Road" }, "geometry": { "type": "Point", "coordinates": [ -63.612566, 44.607251 ] } },
{ "type": "Feature", "properties": { "device_id": 48, "source_layer": "Speed Display Sign", "device_type": "Speed Display Sign", "install_year": 2025, "location": "192 Prince Albert Road" }, "geometry": { "type": "Point", "coordinates": [ -63.559141, 44.675379 ] } },
{ "type": "Feature", "properties": { "device_id": 49, "source_layer": "Speed Display Sign", "device_type": "Speed Display Sign", "install_year": 2025, "location": "1945 Purcells Cove Road" }, "geometry": { "type": "Point", "coordinates": [ -63.597651, 44.623194 ] } },
{ "type": "Feature", "properties": { "device_id": 50, "source_layer": "Speed Display Sign", "device_type": "Speed Display Sign", "install_year": 2025, "location": "240 Main Ave" }, "geometry": { "type": "Point", "coordinates": [ -63.648201, 44.653338 ] } },
{ "type": "Feature", "properties": { "device_id": 51, "source_layer": "Speed Display Sign", "device_type": "Speed Display Sign", "install_year": 2025, "location": "2410 St Margarets Bay Road" }, "geometry": { "type": "Point", "coordinates": [ -63.738961, 44.658959 ] } },
{ "type": "Feature", "properties": { "device_id": 52, "source_layer": "Speed Display Sign", "device_type": "Speed Display Sign", "install_year": 2025, "location": "2843 Joseph Howe Drive" }, "geometry": { "type": "Point", "coordinates": [ -63.626032, 44.644966 ] } },
{ "type": "Feature", "properties": { "device_id": 53, "source_layer": "Speed Display Sign", "device_type": "Speed Display Sign", "install_year": 2025, "location": "315 Lucasville Road" }, "geometry": { "type": "Point", "coordinates": [ -63.717342, 44.772354 ] } },
{ "type": "Feature", "properties": { "device_id": 54, "source_layer": "Speed Display Sign", "device_type": "Speed Display Sign", "install_year": 2025, "location": "3260 Barrington Street" }, "geometry": { "type": "Point", "coordinates": [ -63.598026, 44.667503 ] } },
{ "type": "Feature", "properties": { "device_id": 55, "source_layer": "Speed Display Sign", "device_type": "Speed Display Sign", "install_year": 2025, "location": "3455 Highway 7" }, "geometry": { "type": "Point", "coordinates": [ -63.372568, 44.735854 ] } },
{ "type": "Feature", "properties": { "device_id": 56, "source_layer": "Speed Display Sign", "device_type": "Speed Display Sign", "install_year": 2025, "location": "39 Maplewood Drive" }, "geometry": { "type": "Point", "coordinates": [ -63.737756, 44.655989 ] } },
{ "type": "Feature", "properties": { "device_id": 57, "source_layer": "Speed Display Sign", "device_type": "Speed Display Sign", "install_year": 2025, "location": "398 Millwood Drive" }, "geometry": { "type": "Point", "coordinates": [ -63.697923, 44.7904 ] } },
{ "type": "Feature", "properties": { "device_id": 58, "source_layer": "Speed Display Sign", "device_type": "Speed Display Sign", "install_year": 2025, "location": "41 Kearney Lake Road" }, "geometry": { "type": "Point", "coordinates": [ -63.664647, 44.68173 ] } },
{ "type": "Feature", "properties": { "device_id": 59, "source_layer": "Speed Display Sign", "device_type": "Speed Display Sign", "install_year": 2025, "location": "464 Waverley Road" }, "geometry": { "type": "Point", "coordinates": [ -63.545373, 44.719113 ] } },
{ "type": "Feature", "properties": { "device_id": 60, "source_layer": "Speed Display Sign", "device_type": "Speed Display Sign", "install_year": 2025, "location": "527 Pleasant Street" }, "geometry": { "type": "Point", "coordinates": [ -63.541853, 44.644851 ] } },
{ "type": "Feature", "properties": { "device_id": 61, "source_layer": "Speed Display Sign", "device_type": "Speed Display Sign", "install_year": 2025, "location": "6384 St Margarets Bay Road" }, "geometry": { "type": "Point", "coordinates": [ -63.921977, 44.677466 ] } },
{ "type": "Feature", "properties": { "device_id": 62, "source_layer": "Speed Display Sign", "device_type": "Speed Display Sign", "install_year": 2025, "location": "7070 Chebucto Road" }, "geometry": { "type": "Point", "coordinates": [ -63.618411, 44.643757 ] } },
{ "type": "Feature", "properties": { "device_id": 63, "source_layer": "Speed Display Sign", "device_type": "Speed Display Sign", "install_year": 2025, "location": "767 Windgate Drive" }, "geometry": { "type": "Point", "coordinates": [ -63.680331, 44.793175 ] } },
{ "type": "Feature", "properties": { "device_id": 64, "source_layer": "Speed Display Sign", "device_type": "Speed Display Sign", "install_year": 2025, "location": "829 Mineville Road" }, "geometry": { "type": "Point", "coordinates": [ -63.384563, 44.696118 ] } },
{ "type": "Feature", "properties": { "device_id": 65, "source_layer": "Speed Display Sign", "device_type": "Speed Display Sign", "install_year": 2025, "location": "Bell Road at Garrison Grounds driveway" }, "geometry": { "type": "Point", "coordinates": [ -63.582223, 44.645243 ] } },
{ "type": "Feature", "properties": { "device_id": 66, "source_layer": "Speed Display Sign", "device_type": "Speed Display Sign", "install_year": 2025, "location": "Hammonds Plains Road after Brookshire Court" }, "geometry": { "type": "Point", "coordinates": [ -63.687466, 44.720369 ] } },
{ "type": "Feature", "properties": { "device_id": 67, "source_layer": "Speed Display Sign", "device_type": "Speed Display Sign", "install_year": 2025, "location": "Larry Uteck Boulevard after Broad Street south" }, "geometry": { "type": "Point", "coordinates": [ -63.707908, 44.706393 ] } },
{ "type": "Feature", "properties": { "device_id": 68, "source_layer": "Speed Display Sign", "device_type": "Speed Display Sign", "install_year": 2025, "location": "Main Street after Ridgecrest Drive" }, "geometry": { "type": "Point", "coordinates": [ -63.503467, 44.69205 ] } },
{ "type": "Feature", "properties": { "device_id": 69, "source_layer": "Speed Display Sign", "device_type": "Speed Display Sign", "install_year": 2025, "location": "Massachusetts Avenue before Columbus Street" }, "geometry": { "type": "Point", "coordinates": [ -63.608181, 44.661977 ] } },
{ "type": "Feature", "properties": { "device_id": 70, "source_layer": "Speed Display Sign", "device_type": "Speed Display Sign", "install_year": 2025, "location": "Prospect Road before Evergreen Pl" }, "geometry": { "type": "Point", "coordinates": [ -63.672335, 44.608296 ] } },
{ "type": "Feature", "properties": { "device_id": 71, "source_layer": "Speed Display Sign", "device_type": "Speed Display Sign", "install_year": 2025, "location": "South Street by Dalplex" }, "geometry": { "type": "Point", "coordinates": [ -63.592126, 44.634845 ] } },
{ "type": "Feature", "properties": { "device_id": 72, "source_layer": "Speed Display Sign", "device_type": "Speed Display Sign", "install_year": null, "location": "458 Starboard Dr" }, "geometry": { "type": "Point", "coordinates": [ -63.682085, 44.696203 ] } },
{ "type": "Feature", "properties": { "device_id": 73, "source_layer": "Speed Display Sign", "device_type": "Speed Display Sign", "install_year": null, "location": "Dartmouth Rd at end of ramp" }, "geometry": { "type": "Point", "coordinates": [ -63.643477, 44.726566 ] } },
{ "type": "Feature", "properties": { "device_id": 74, "source_layer": "Traffic Control Location", "device_type": "Lane Control", "install_year": null, "location": "ARMDALE ROTARY - CHEBUCTO RD LANE CONTROL" }, "geometry": { "type": "Point", "coordinates": [ -63.619951, 44.642189 ] } },
{ "type": "Feature", "properties": { "device_id": 75, "source_layer": "Traffic Control Location", "device_type": "Lane Control", "install_year": null, "location": "ARMDALE ROTARY - HERRING COVE RD LANE CONTROL" }, "geometry": { "type": "Point", "coordinates": [ -63.620148, 44.64093 ] } },
{ "type": "Feature", "properties": { "device_id": 76, "source_layer": "Traffic Control Location", "device_type": "Median Mounted Flashing Beacon", "install_year": null, "location": "PLEASANT ST - BELMONT AVE" }, "geometry": { "type": "Point", "coordinates": [ -63.526383, 44.635459 ] } },
{ "type": "Feature", "properties": { "device_id": 77, "source_layer": "Traffic Control Location", "device_type": "Overhead Flashing Beacon", "install_year": null, "location": "FALL RIVER RD - LOCKVIEW RD" }, "geometry": { "type": "Point", "coordinates": [ -63.615389, 44.817083 ] } },
{ "type": "Feature", "properties": { "device_id": 78, "source_layer": "Traffic Control Location", "device_type": "Overhead Flashing Beacon", "install_year": null, "location": "HIGHWAY 7 - ROSS RD" }, "geometry": { "type": "Point", "coordinates": [ -63.465541, 44.704167 ] } },
{ "type": "Feature", "properties": { "device_id": 79, "source_layer": "Traffic Control Location", "device_type": "Overhead Flashing Beacon", "install_year": null, "location": "JOFFRE ST - SINCLAIR ST" }, "geometry": { "type": "Point", "coordinates": [ -63.557046, 44.67629 ] } },
{ "type": "Feature", "properties": { "device_id": 80, "source_layer": "Traffic Control Location", "device_type": "Overhead Flashing Beacon", "install_year": null, "location": "LARRY UTECK BLVD - BLUEWATER RD" }, "geometry": { "type": "Point", "coordinates": [ -63.716647, 44.714409 ] } },
{ "type": "Feature", "properties": { "device_id": 81, "source_layer": "Traffic Control Location", "device_type": "Overhead Flashing Beacon", "install_year": null, "location": "MAPLE ST - THISTLE ST" }, "geometry": { "type": "Point", "coordinates": [ -63.569318, 44.673365 ] } },
{ "type": "Feature", "properties": { "device_id": 82, "source_layer": "Traffic Control Location", "device_type": "Overhead Flashing Beacon", "install_year": null, "location": "PLEASANT ST - CN OVERPASS" }, "geometry": { "type": "Point", "coordinates": [ -63.525864, 44.635055 ] } },
{ "type": "Feature", "properties": { "device_id": 83, "source_layer": "Traffic Control Location", "device_type": "Overhead Flashing Beacon", "install_year": null, "location": "PURCELLS COVE RD - WILLIAMS LAKE RD" }, "geometry": { "type": "Point", "coordinates": [ -63.601393, 44.623595 ] } },
{ "type": "Feature", "properties": { "device_id": 84, "source_layer": "Traffic Control Location", "device_type": "Pedestrian Half Signals", "install_year": 2024, "location": "Hollis St at Upper Water St" }, "geometry": { "type": "Point", "coordinates": [ -63.574245, 44.650307 ] } },
{ "type": "Feature", "properties": { "device_id": 85, "source_layer": "Traffic Control Location", "device_type": "Pedestrian Half Signals", "install_year": 2024, "location": "Lower Water St at Upper Water St" }, "geometry": { "type": "Point", "coordinates": [ -63.573875, 44.650417 ] } },
{ "type": "Feature", "properties": { "device_id": 86, "source_layer": "Traffic Control Location", "device_type": "Pedestrian Half Signals", "install_year": 2024, "location": "Sackville Dr - Civic 636" }, "geometry": { "type": "Point", "coordinates": [ -63.687593, 44.769071 ] } },
{ "type": "Feature", "properties": { "device_id": 87, "source_layer": "Traffic Control Location", "device_type": "Pedestrian Half Signals", "install_year": 2025, "location": "BARRINGTON ST - BARRINGTON PLACE SHOPS" }, "geometry": { "type": "Point", "coordinates": [ -63.575564, 44.65017 ] } },
{ "type": "Feature", "properties": { "device_id": 88, "source_layer": "Traffic Control Location", "device_type": "Pedestrian Half Signals", "install_year": 2026, "location": "MAIN RD - CORSAIR DR" }, "geometry": { "type": "Point", "coordinates": [ -63.521626, 44.631861 ] } },
{ "type": "Feature", "properties": { "device_id": 89, "source_layer": "Traffic Control Location", "device_type": "Pedestrian Half Signals", "install_year": 2026, "location": "MAIN RD - SWORDFISH DR" }, "geometry": { "type": "Point", "coordinates": [ -63.518359, 44.62899 ] } },
{ "type": "Feature", "properties": { "device_id": 90, "source_layer": "Traffic Control Location", "device_type": "Pedestrian Half Signals", "install_year": null, "location": "ALMON ST - GLADSTONE ST" }, "geometry": { "type": "Point", "coordinates": [ -63.601134, 44.655451 ] } },
{ "type": "Feature", "properties": { "device_id": 91, "source_layer": "Traffic Control Location", "device_type": "Pedestrian Half Signals", "install_year": null, "location": "COBURG RD - SEYMOUR ST" }, "geometry": { "type": "Point", "coordinates": [ -63.589903, 44.639332 ] } },
{ "type": "Feature", "properties": { "device_id": 92, "source_layer": "Traffic Control Location", "device_type": "Pedestrian Half Signals", "install_year": null, "location": "MAIN ST - WEYBURN RD" }, "geometry": { "type": "Point", "coordinates": [ -63.532481, 44.683918 ] } },
{ "type": "Feature", "properties": { "device_id": 93, "source_layer": "Traffic Control Location", "device_type": "Pedestrian Half Signals", "install_year": null, "location": "NANTUCKET AVE - DARTMOUTH SHOPPING CENTER" }, "geometry": { "type": "Point", "coordinates": [ -63.576579, 44.670695 ] } },
{ "type": "Feature", "properties": { "device_id": 94, "source_layer": "Traffic Control Location", "device_type": "Pedestrian Half Signals", "install_year": null, "location": "OXFORD ST - ALLAN ST - OAK ST" }, "geometry": { "type": "Point", "coordinates": [ -63.601368, 44.646728 ] } },
{ "type": "Feature", "properties": { "device_id": 95, "source_layer": "Traffic Control Location", "device_type": "Pedestrian Half Signals", "install_year": null, "location": "QUINPOOL RD - BEECH ST (1/2 SIGNAL)" }, "geometry": { "type": "Point", "coordinates": [ -63.602173, 44.643981 ] } },
{ "type": "Feature", "properties": { "device_id": 96, "source_layer": "Traffic Control Location", "device_type": "Pedestrian Half Signals", "install_year": null, "location": "QUINPOOL RD - HARVARD ST (1/2 SIGNAL)" }, "geometry": { "type": "Point", "coordinates": [ -63.599426, 44.644798 ] } },
{ "type": "Feature", "properties": { "device_id": 97, "source_layer": "Traffic Control Location", "device_type": "Pedestrian Half Signals", "install_year": null, "location": "Quinpool Rd at Canadian Tire" }, "geometry": { "type": "Point", "coordinates": [ -63.596145, 44.645741 ] } },
{ "type": "Feature", "properties": { "device_id": 98, "source_layer": "Traffic Control Location", "device_type": "RA-5 with Flashing Beacon", "install_year": 2013, "location": "LARRY UTECK BLVD AT BEDROS LN" }, "geometry": { "type": "Point", "coordinates": [ -63.666203, 44.698456 ] } },
{ "type": "Feature", "properties": { "device_id": 99, "source_layer": "Traffic Control Location", "device_type": "RA-5 with Flashing Beacon", "install_year": 2020, "location": "LACEWOOD DR - BRAESIDE LN" }, "geometry": { "type": "Point", "coordinates": [ -63.640843, 44.661782 ] } },
{ "type": "Feature", "properties": { "device_id": 100, "source_layer": "Traffic Control Location", "device_type": "RA-5 with Flashing Beacon", "install_year": 2022, "location": "Barrington St at Civic 3150" }, "geometry": { "type": "Point", "coordinates": [ -63.59557, 44.665639 ] } },
{ "type": "Feature", "properties": { "device_id": 101, "source_layer": "Traffic Control Location", "device_type": "RA-5 with Flashing Beacon", "install_year": 2023, "location": "DENTITH RD/CANADIAN TIRE" }, "geometry": { "type": "Point", "coordinates": [ -63.618751, 44.613563 ] } },
{ "type": "Feature", "properties": { "device_id": 102, "source_layer": "Traffic Control Location", "device_type": "RA-5 with Flashing Beacon", "install_year": 2023, "location": "LARRY UTECK BLVD/AMESBURY GATE EAST" }, "geometry": { "type": "Point", "coordinates": [ -63.697783, 44.699618 ] } },
{ "type": "Feature", "properties": { "device_id": 103, "source_layer": "Traffic Control Location", "device_type": "RA-5 with Flashing Beacon", "install_year": 2023, "location": "LARRY UTECK BLVD/AMESBURY GATE WEST" }, "geometry": { "type": "Point", "coordinates": [ -63.702521, 44.702286 ] } },
{ "type": "Feature", "properties": { "device_id": 104, "source_layer": "Traffic Control Location", "device_type": "RA-5 with Flashing Beacon", "install_year": 2023, "location": "WASHMILL LAKE DR/GRANDHAVEN BLVD" }, "geometry": { "type": "Point", "coordinates": [ -63.66387, 44.647929 ] } },
{ "type": "Feature", "properties": { "device_id": 105, "source_layer": "Traffic Control Location", "device_type": "RA-5 with Flashing Beacon", "install_year": 2024, "location": "Herring Cove Rd at Levis St" }, "geometry": { "type": "Point", "coordinates": [ -63.616822, 44.60978 ] } },
{ "type": "Feature", "properties": { "device_id": 106, "source_layer": "Traffic Control Location", "device_type": "RA-5 with Flashing Beacon", "install_year": 2024, "location": "Robie St at Binney St" }, "geometry": { "type": "Point", "coordinates": [ -63.587927, 44.642408 ] } },
{ "type": "Feature", "properties": { "device_id": 107, "source_layer": "Traffic Control Location", "device_type": "RA-5 with Flashing Beacon", "install_year": 2025, "location": "Cobequid Rd at Hillside Ave" }, "geometry": { "type": "Point", "coordinates": [ -63.661967, 44.756365 ] } },
{ "type": "Feature", "properties": { "device_id": 108, "source_layer": "Traffic Control Location", "device_type": "RA-5 with Flashing Beacon", "install_year": 2025, "location": "Upper Water St at Bells Ln" }, "geometry": { "type": "Point", "coordinates": [ -63.575008, 44.651202 ] } },
{ "type": "Feature", "properties": { "device_id": 109, "source_layer": "Traffic Control Location", "device_type": "RA-5 with Flashing Beacon", "install_year": null, "location": "ALBRO LAKE RD - CATHERINE ST" }, "geometry": { "type": "Point", "coordinates": [ -63.585806, 44.678077 ] } },
{ "type": "Feature", "properties": { "device_id": 110, "source_layer": "Traffic Control Location", "device_type": "RA-5 with Flashing Beacon", "install_year": null, "location": "ALDERNEY DR - CHURCH ST" }, "geometry": { "type": "Point", "coordinates": [ -63.571637, 44.666421 ] } },
{ "type": "Feature", "properties": { "device_id": 111, "source_layer": "Traffic Control Location", "device_type": "RA-5 with Flashing Beacon", "install_year": null, "location": "ALDERNEY DR - PRINCE ST" }, "geometry": { "type": "Point", "coordinates": [ -63.565997, 44.663999 ] } },
{ "type": "Feature", "properties": { "device_id": 112, "source_layer": "Traffic Control Location", "device_type": "RA-5 with Flashing Beacon", "install_year": null, "location": "BARRINGTON ST - ARTZ ST (RAMP TO BRIDGE & ACROSS)" }, "geometry": { "type": "Point", "coordinates": [ -63.586373, 44.657735 ] } },
{ "type": "Feature", "properties": { "device_id": 113, "source_layer": "Traffic Control Location", "device_type": "RA-5 with Flashing Beacon", "install_year": null, "location": "BARRINGTON ST - RICHMOND ST" }, "geometry": { "type": "Point", "coordinates": [ -63.598399, 44.667891 ] } },
{ "type": "Feature", "properties": { "device_id": 114, "source_layer": "Traffic Control Location", "device_type": "RA-5 with Flashing Beacon", "install_year": null, "location": "BASINVIEW DR - GLEN MOIR TERR" }, "geometry": { "type": "Point", "coordinates": [ -63.680778, 44.71866 ] } },
{ "type": "Feature", "properties": { "device_id": 115, "source_layer": "Traffic Control Location", "device_type": "RA-5 with Flashing Beacon", "install_year": null, "location": "BAYERS RD - CONNOLLY ST" }, "geometry": { "type": "Point", "coordinates": [ -63.612716, 44.653471 ] } },
{ "type": "Feature", "properties": { "device_id": 116, "source_layer": "Traffic Control Location", "device_type": "RA-5 with Flashing Beacon", "install_year": null, "location": "BEAVERBANK RD - PINEHAVEN DR" }, "geometry": { "type": "Point", "coordinates": [ -63.684393, 44.818209 ] } },
{ "type": "Feature", "properties": { "device_id": 117, "source_layer": "Traffic Control Location", "device_type": "RA-5 with Flashing Beacon", "install_year": null, "location": "BEDFORD HWY - BETWEEN CIVICS 1493 & 1505" }, "geometry": { "type": "Point", "coordinates": [ -63.659585, 44.731267 ] } },
{ "type": "Feature", "properties": { "device_id": 118, "source_layer": "Traffic Control Location", "device_type": "RA-5 with Flashing Beacon", "install_year": null, "location": "BEDFORD HWY - CHARLOTTE LANE" }, "geometry": { "type": "Point", "coordinates": [ -63.660756, 44.696516 ] } },
{ "type": "Feature", "properties": { "device_id": 119, "source_layer": "Traffic Control Location", "device_type": "RA-5 with Flashing Beacon", "install_year": null, "location": "BEDFORD HWY - CIVIC 166 - MOUNT ST VINCENT UNIVERSITY" }, "geometry": { "type": "Point", "coordinates": [ -63.643826, 44.672418 ] } },
{ "type": "Feature", "properties": { "device_id": 120, "source_layer": "Traffic Control Location", "device_type": "RA-5 with Flashing Beacon", "install_year": null, "location": "BEDFORD HWY - NELSONS LANDING BLVD" }, "geometry": { "type": "Point", "coordinates": [ -63.674786, 44.71275 ] } },
{ "type": "Feature", "properties": { "device_id": 121, "source_layer": "Traffic Control Location", "device_type": "RA-5 with Flashing Beacon", "install_year": null, "location": "BEDFORD HWY - RUTLEDGE ST" }, "geometry": { "type": "Point", "coordinates": [ -63.667741, 44.725483 ] } },
{ "type": "Feature", "properties": { "device_id": 122, "source_layer": "Traffic Control Location", "device_type": "RA-5 with Flashing Beacon", "install_year": null, "location": "BEDFORD HWY - SETON RD" }, "geometry": { "type": "Point", "coordinates": [ -63.641622, 44.670508 ] } },
{ "type": "Feature", "properties": { "device_id": 123, "source_layer": "Traffic Control Location", "device_type": "RA-5 with Flashing Beacon", "install_year": null, "location": "BEDFORD HWY - SPRING ST" }, "geometry": { "type": "Point", "coordinates": [ -63.66599, 44.726787 ] } },
{ "type": "Feature", "properties": { "device_id": 124, "source_layer": "Traffic Control Location", "device_type": "RA-5 with Flashing Beacon", "install_year": null, "location": "BEDFORD HWY - TREMONT DR" }, "geometry": { "type": "Point", "coordinates": [ -63.650285, 44.678534 ] } },
{ "type": "Feature", "properties": { "device_id": 125, "source_layer": "Traffic Control Location", "device_type": "RA-5 with Flashing Beacon", "install_year": null, "location": "BRUNSWICK ST - CARMICHAEL ST" }, "geometry": { "type": "Point", "coordinates": [ -63.577205, 44.647553 ] } },
{ "type": "Feature", "properties": { "device_id": 126, "source_layer": "Traffic Control Location", "device_type": "RA-5 with Flashing Beacon", "install_year": null, "location": "Braemar Drive at Maple Drive" }, "geometry": { "type": "Point", "coordinates": [ -63.546778, 44.688366 ] } },
{ "type": "Feature", "properties": { "device_id": 127, "source_layer": "Traffic Control Location", "device_type": "RA-5 with Flashing Beacon", "install_year": null, "location": "CALDWELL RD - ASRTAL DR (FLASHERS)" }, "geometry": { "type": "Point", "coordinates": [ -63.489371, 44.656551 ] } },
{ "type": "Feature", "properties": { "device_id": 128, "source_layer": "Traffic Control Location", "device_type": "RA-5 with Flashing Beacon", "install_year": null, "location": "CHEBUCTO RD - CONNOLLY ST - ELM ST" }, "geometry": { "type": "Point", "coordinates": [ -63.605022, 44.648099 ] } },
{ "type": "Feature", "properties": { "device_id": 129, "source_layer": "Traffic Control Location", "device_type": "RA-5 with Flashing Beacon", "install_year": null, "location": "CHEBUCTO RD - PHILIP ST" }, "geometry": { "type": "Point", "coordinates": [ -63.617343, 44.644603 ] } },
{ "type": "Feature", "properties": { "device_id": 130, "source_layer": "Traffic Control Location", "device_type": "RA-5 with Flashing Beacon", "install_year": null, "location": "COGSWELL ST - APPROX CIVIC 5816" }, "geometry": { "type": "Point", "coordinates": [ -63.588159, 44.648416 ] } },
{ "type": "Feature", "properties": { "device_id": 131, "source_layer": "Traffic Control Location", "device_type": "RA-5 with Flashing Beacon", "install_year": null, "location": "COLE HARBOUR RD - BISSETT RD" }, "geometry": { "type": "Point", "coordinates": [ -63.47793, 44.672523 ] } },
{ "type": "Feature", "properties": { "device_id": 132, "source_layer": "Traffic Control Location", "device_type": "RA-5 with Flashing Beacon", "install_year": null, "location": "COLE HARBOUR RD - PERRON DR" }, "geometry": { "type": "Point", "coordinates": [ -63.481727, 44.672631 ] } },
{ "type": "Feature", "properties": { "device_id": 133, "source_layer": "Traffic Control Location", "device_type": "RA-5 with Flashing Beacon", "install_year": null, "location": "CONNAUGHT AVE - CHISHOLM AVE" }, "geometry": { "type": "Point", "coordinates": [ -63.618944, 44.658278 ] } },
{ "type": "Feature", "properties": { "device_id": 134, "source_layer": "Traffic Control Location", "device_type": "RA-5 with Flashing Beacon", "install_year": null, "location": "CONNAUGHT AVE - LIVERPOOL ST" }, "geometry": { "type": "Point", "coordinates": [ -63.612354, 44.650375 ] } },
{ "type": "Feature", "properties": { "device_id": 135, "source_layer": "Traffic Control Location", "device_type": "RA-5 with Flashing Beacon", "install_year": null, "location": "CONNAUGHT AVE - NORWOOD ST" }, "geometry": { "type": "Point", "coordinates": [ -63.603656, 44.64145 ] } },
{ "type": "Feature", "properties": { "device_id": 136, "source_layer": "Traffic Control Location", "device_type": "RA-5 with Flashing Beacon", "install_year": null, "location": "CONNAUGHT AVE - REGENT RD" }, "geometry": { "type": "Point", "coordinates": [ -63.6175, 44.65567 ] } },
{ "type": "Feature", "properties": { "device_id": 137, "source_layer": "Traffic Control Location", "device_type": "RA-5 with Flashing Beacon", "install_year": null, "location": "CRICHTON AVE - HAWTHORNE ST (SINGLE SIGN)" }, "geometry": { "type": "Point", "coordinates": [ -63.564181, 44.674624 ] } },
{ "type": "Feature", "properties": { "device_id": 138, "source_layer": "Traffic Control Location", "device_type": "RA-5 with Flashing Beacon", "install_year": null, "location": "CRICHTON AVE - OAKDALE CRES" }, "geometry": { "type": "Point", "coordinates": [ -63.56399, 44.677709 ] } },
{ "type": "Feature", "properties": { "device_id": 139, "source_layer": "Traffic Control Location", "device_type": "RA-5 with Flashing Beacon", "install_year": null, "location": "DARTMOUTH RD - NORTH ST - WARDOUR ST" }, "geometry": { "type": "Point", "coordinates": [ -63.65551, 44.73007 ] } },
{ "type": "Feature", "properties": { "device_id": 140, "source_layer": "Traffic Control Location", "device_type": "RA-5 with Flashing Beacon", "install_year": null, "location": "DEVONSHIRE AVE - ALEXANDRA CHILDRENS CENTRE/COURT HOUSE" }, "geometry": { "type": "Point", "coordinates": [ -63.60335, 44.667278 ] } },
{ "type": "Feature", "properties": { "device_id": 141, "source_layer": "Traffic Control Location", "device_type": "RA-5 with Flashing Beacon", "install_year": null, "location": "DEVONSHIRE AVE - RICHMOND ST" }, "geometry": { "type": "Point", "coordinates": [ -63.599772, 44.666903 ] } },
{ "type": "Feature", "properties": { "device_id": 142, "source_layer": "Traffic Control Location", "device_type": "RA-5 with Flashing Beacon", "install_year": null, "location": "DUKE STREET - ARGYLE ST" }, "geometry": { "type": "Point", "coordinates": [ -63.575797, 44.649035 ] } },
{ "type": "Feature", "properties": { "device_id": 143, "source_layer": "Traffic Control Location", "device_type": "RA-5 with Flashing Beacon", "install_year": null, "location": "DUNBRACK ST - BIRKDALE CRES" }, "geometry": { "type": "Point", "coordinates": [ -63.651503, 44.655275 ] } },
{ "type": "Feature", "properties": { "device_id": 144, "source_layer": "Traffic Control Location", "device_type": "RA-5 with Flashing Beacon", "install_year": null, "location": "DUNBRACK ST - CLAYTON PARK DR" }, "geometry": { "type": "Point", "coordinates": [ -63.652211, 44.660289 ] } },
{ "type": "Feature", "properties": { "device_id": 145, "source_layer": "Traffic Control Location", "device_type": "RA-5 with Flashing Beacon", "install_year": null, "location": "DUNBRACK ST - WENTWORTH DR - ROSS ST" }, "geometry": { "type": "Point", "coordinates": [ -63.663451, 44.677279 ] } },
{ "type": "Feature", "properties": { "device_id": 146, "source_layer": "Traffic Control Location", "device_type": "RA-5 with Flashing Beacon", "install_year": null, "location": "DUTCH VILLAGE RD - BETWEEN ALMA CRES - DEAL ST" }, "geometry": { "type": "Point", "coordinates": [ -63.630943, 44.659408 ] } },
{ "type": "Feature", "properties": { "device_id": 147, "source_layer": "Traffic Control Location", "device_type": "RA-5 with Flashing Beacon", "install_year": null, "location": "EAGLEWOOD DR - FLINNS HILL" }, "geometry": { "type": "Point", "coordinates": [ -63.645373, 44.725604 ] } },
{ "type": "Feature", "properties": { "device_id": 148, "source_layer": "Traffic Control Location", "device_type": "RA-5 with Flashing Beacon", "install_year": null, "location": "GLENDALE DR - CHANDLER DR" }, "geometry": { "type": "Point", "coordinates": [ -63.666743, 44.767898 ] } },
{ "type": "Feature", "properties": { "device_id": 149, "source_layer": "Traffic Control Location", "device_type": "RA-5 with Flashing Beacon", "install_year": null, "location": "GLENDALE DR - MCGEE DR" }, "geometry": { "type": "Point", "coordinates": [ -63.66376, 44.765414 ] } },
{ "type": "Feature", "properties": { "device_id": 150, "source_layer": "Traffic Control Location", "device_type": "RA-5 with Flashing Beacon", "install_year": null, "location": "GLENDALE DR - PINEHILL DR" }, "geometry": { "type": "Point", "coordinates": [ -63.672624, 44.770212 ] } },
{ "type": "Feature", "properties": { "device_id": 151, "source_layer": "Traffic Control Location", "device_type": "RA-5 with Flashing Beacon", "install_year": null, "location": "GLENDALE DR - RANKIN DR" }, "geometry": { "type": "Point", "coordinates": [ -63.684348, 44.779626 ] } },
{ "type": "Feature", "properties": { "device_id": 152, "source_layer": "Traffic Control Location", "device_type": "RA-5 with Flashing Beacon", "install_year": null, "location": "GLENDALE DR - RAYMOND DR" }, "geometry": { "type": "Point", "coordinates": [ -63.676416, 44.775137 ] } },
{ "type": "Feature", "properties": { "device_id": 153, "source_layer": "Traffic Control Location", "device_type": "RA-5 with Flashing Beacon", "install_year": null, "location": "GLENDALE DR - SMOKEY DR" }, "geometry": { "type": "Point", "coordinates": [ -63.688914, 44.781164 ] } },
{ "type": "Feature", "properties": { "device_id": 154, "source_layer": "Traffic Control Location", "device_type": "RA-5 with Flashing Beacon", "install_year": null, "location": "GOTTINGEN ST - BUDDY DAYE ST" }, "geometry": { "type": "Point", "coordinates": [ -63.587133, 44.654603 ] } },
{ "type": "Feature", "properties": { "device_id": 155, "source_layer": "Traffic Control Location", "device_type": "RA-5 with Flashing Beacon", "install_year": null, "location": "GOTTINGEN ST - CHARLES ST" }, "geometry": { "type": "Point", "coordinates": [ -63.589673, 44.65635 ] } },
{ "type": "Feature", "properties": { "device_id": 156, "source_layer": "Traffic Control Location", "device_type": "RA-5 with Flashing Beacon", "install_year": null, "location": "GOTTINGEN ST - CUNARD ST" }, "geometry": { "type": "Point", "coordinates": [ -63.585346, 44.653372 ] } },
{ "type": "Feature", "properties": { "device_id": 157, "source_layer": "Traffic Control Location", "device_type": "RA-5 with Flashing Beacon", "install_year": null, "location": "GOTTINGEN ST - UNIACKE ST" }, "geometry": { "type": "Point", "coordinates": [ -63.587952, 44.655165 ] } },
{ "type": "Feature", "properties": { "device_id": 158, "source_layer": "Traffic Control Location", "device_type": "RA-5 with Flashing Beacon", "install_year": null, "location": "HAMMONDS PLAINS RD - BEDFORD HILLS RD" }, "geometry": { "type": "Point", "coordinates": [ -63.685376, 44.718653 ] } },
{ "type": "Feature", "properties": { "device_id": 159, "source_layer": "Traffic Control Location", "device_type": "RA-5 with Flashing Beacon", "install_year": null, "location": "HERRING COVE RD - ARTHUR ST" }, "geometry": { "type": "Point", "coordinates": [ -63.616555, 44.613839 ] } },
{ "type": "Feature", "properties": { "device_id": 160, "source_layer": "Traffic Control Location", "device_type": "RA-5 with Flashing Beacon", "install_year": null, "location": "HERRING COVE RD - GLENORA AVE" }, "geometry": { "type": "Point", "coordinates": [ -63.616412, 44.627809 ] } },
{ "type": "Feature", "properties": { "device_id": 161, "source_layer": "Traffic Control Location", "device_type": "RA-5 with Flashing Beacon", "install_year": null, "location": "HERRING COVE RD - LAWNWOOD AVE" }, "geometry": { "type": "Point", "coordinates": [ -63.621701, 44.636152 ] } },
{ "type": "Feature", "properties": { "device_id": 162, "source_layer": "Traffic Control Location", "device_type": "RA-5 with Flashing Beacon", "install_year": null, "location": "HERRING COVE RD - MCMULLEN RD - MONT ST" }, "geometry": { "type": "Point", "coordinates": [ -63.617776, 44.622659 ] } },
{ "type": "Feature", "properties": { "device_id": 163, "source_layer": "Traffic Control Location", "device_type": "RA-5 with Flashing Beacon", "install_year": null, "location": "HERRING COVE RD - SPRY AVE - CIRCLE DR" }, "geometry": { "type": "Point", "coordinates": [ -63.615431, 44.618864 ] } },
{ "type": "Feature", "properties": { "device_id": 164, "source_layer": "Traffic Control Location", "device_type": "RA-5 with Flashing Beacon", "install_year": null, "location": "HERRING COVE RD - SUSSEX ST" }, "geometry": { "type": "Point", "coordinates": [ -63.617727, 44.611667 ] } },
{ "type": "Feature", "properties": { "device_id": 165, "source_layer": "Traffic Control Location", "device_type": "RA-5 with Flashing Beacon", "install_year": null, "location": "HERRING COVE RD - SYLVIA AVE" }, "geometry": { "type": "Point", "coordinates": [ -63.61145, 44.603461 ] } },
{ "type": "Feature", "properties": { "device_id": 166, "source_layer": "Traffic Control Location", "device_type": "RA-5 with Flashing Beacon", "install_year": null, "location": "HERRING COVE RD CIVIC 565 - AIKENHEAD RD" }, "geometry": { "type": "Point", "coordinates": [ -63.605488, 44.599178 ] } },
{ "type": "Feature", "properties": { "device_id": 167, "source_layer": "Traffic Control Location", "device_type": "RA-5 with Flashing Beacon", "install_year": null, "location": "HIGH ST - LADY HAMMOND RD" }, "geometry": { "type": "Point", "coordinates": [ -63.612204, 44.665265 ] } },
{ "type": "Feature", "properties": { "device_id": 168, "source_layer": "Traffic Control Location", "device_type": "RA-5 with Flashing Beacon", "install_year": null, "location": "HIGHFIELD PARK DR - HIGHFIELD PARK TRANSIT TERMINAL" }, "geometry": { "type": "Point", "coordinates": [ -63.589612, 44.684259 ] } },
{ "type": "Feature", "properties": { "device_id": 169, "source_layer": "Traffic Control Location", "device_type": "RA-5 with Flashing Beacon", "install_year": null, "location": "HIGHWAY 7 - BLACK CULTURAL CENTER" }, "geometry": { "type": "Point", "coordinates": [ -63.470516, 44.702954 ] } },
{ "type": "Feature", "properties": { "device_id": 170, "source_layer": "Traffic Control Location", "device_type": "RA-5 with Flashing Beacon", "install_year": null, "location": "HOLLIS ST - SALTER ST (SINGLE SIGN)" }, "geometry": { "type": "Point", "coordinates": [ -63.571511, 44.645039 ] } },
{ "type": "Feature", "properties": { "device_id": 171, "source_layer": "Traffic Control Location", "device_type": "RA-5 with Flashing Beacon", "install_year": null, "location": "JOSEPH HOWE DR - CRAIGMORE DR" }, "geometry": { "type": "Point", "coordinates": [ -63.62355, 44.643585 ] } },
{ "type": "Feature", "properties": { "device_id": 172, "source_layer": "Traffic Control Location", "device_type": "RA-5 with Flashing Beacon", "install_year": null, "location": "KEARNEY LAKE RD - WEDGEWOOD AVE - GROSVENOR RD" }, "geometry": { "type": "Point", "coordinates": [ -63.667768, 44.681632 ] } },
{ "type": "Feature", "properties": { "device_id": 173, "source_layer": "Traffic Control Location", "device_type": "RA-5 with Flashing Beacon", "install_year": null, "location": "LACEWOOD DR - GATEWAY RD" }, "geometry": { "type": "Point", "coordinates": [ -63.643027, 44.663113 ] } },
{ "type": "Feature", "properties": { "device_id": 174, "source_layer": "Traffic Control Location", "device_type": "RA-5 with Flashing Beacon", "install_year": null, "location": "LACEWOOD DR - GLENFOREST DR - STONEY BROOK CT" }, "geometry": { "type": "Point", "coordinates": [ -63.638143, 44.661231 ] } },
{ "type": "Feature", "properties": { "device_id": 175, "source_layer": "Traffic Control Location", "device_type": "RA-5 with Flashing Beacon", "install_year": null, "location": "LACEWOOD DR - LINEAR TRAIL" }, "geometry": { "type": "Point", "coordinates": [ -63.662104, 44.661902 ] } },
{ "type": "Feature", "properties": { "device_id": 176, "source_layer": "Traffic Control Location", "device_type": "RA-5 with Flashing Beacon", "install_year": null, "location": "LADY HAMMOND RD - AGRICOLA ST" }, "geometry": { "type": "Point", "coordinates": [ -63.608676, 44.665692 ] } },
{ "type": "Feature", "properties": { "device_id": 177, "source_layer": "Traffic Control Location", "device_type": "RA-5 with Flashing Beacon", "install_year": null, "location": "MACDONALD BRIDGE - BARRINGTON ST RAMP" }, "geometry": { "type": "Point", "coordinates": [ -63.589092, 44.658645 ] } },
{ "type": "Feature", "properties": { "device_id": 178, "source_layer": "Traffic Control Location", "device_type": "RA-5 with Flashing Beacon", "install_year": null, "location": "MAIN AVE - WASHMILL LAKE DR" }, "geometry": { "type": "Point", "coordinates": [ -63.653755, 44.650484 ] } },
{ "type": "Feature", "properties": { "device_id": 179, "source_layer": "Traffic Control Location", "device_type": "RA-5 with Flashing Beacon", "install_year": null, "location": "MAIN RD CIVIC 1410 - MYERS LANE" }, "geometry": { "type": "Point", "coordinates": [ -63.497791, 44.614692 ] } },
{ "type": "Feature", "properties": { "device_id": 180, "source_layer": "Traffic Control Location", "device_type": "RA-5 with Flashing Beacon", "install_year": null, "location": "MAIN ST - BOOTH ST" }, "geometry": { "type": "Point", "coordinates": [ -63.523976, 44.685566 ] } },
{ "type": "Feature", "properties": { "device_id": 181, "source_layer": "Traffic Control Location", "device_type": "RA-5 with Flashing Beacon", "install_year": null, "location": "MUMFORD RD - LEPPERT ST - STUART GRAHAM DR" }, "geometry": { "type": "Point", "coordinates": [ -63.616296, 44.646114 ] } },
{ "type": "Feature", "properties": { "device_id": 182, "source_layer": "Traffic Control Location", "device_type": "RA-5 with Flashing Beacon", "install_year": null, "location": "MUMFORD RD - OLIVET ST - RALSTON AVE (ADVANCE FLASHER)" }, "geometry": { "type": "Point", "coordinates": [ -63.624539, 44.649559 ] } },
{ "type": "Feature", "properties": { "device_id": 183, "source_layer": "Traffic Control Location", "device_type": "RA-5 with Flashing Beacon", "install_year": null, "location": "NANTUCKET AVE - GREEN RD" }, "geometry": { "type": "Point", "coordinates": [ -63.574866, 44.671813 ] } },
{ "type": "Feature", "properties": { "device_id": 184, "source_layer": "Traffic Control Location", "device_type": "RA-5 with Flashing Beacon", "install_year": null, "location": "NORA BERNARD ST - MAYNARD ST" }, "geometry": { "type": "Point", "coordinates": [ -63.585503, 44.651378 ] } },
{ "type": "Feature", "properties": { "device_id": 185, "source_layer": "Traffic Control Location", "device_type": "RA-5 with Flashing Beacon", "install_year": null, "location": "NORA BERNARD ST - NORTH PARK ST" }, "geometry": { "type": "Point", "coordinates": [ -63.586581, 44.650694 ] } },
{ "type": "Feature", "properties": { "device_id": 186, "source_layer": "Traffic Control Location", "device_type": "RA-5 with Flashing Beacon", "install_year": null, "location": "NOVALEA DR - VESTRY ST" }, "geometry": { "type": "Point", "coordinates": [ -63.607962, 44.668762 ] } },
{ "type": "Feature", "properties": { "device_id": 187, "source_layer": "Traffic Control Location", "device_type": "RA-5 with Flashing Beacon", "install_year": null, "location": "OCHTERLONEY ST - KING ST" }, "geometry": { "type": "Point", "coordinates": [ -63.568428, 44.666617 ] } },
{ "type": "Feature", "properties": { "device_id": 188, "source_layer": "Traffic Control Location", "device_type": "RA-5 with Flashing Beacon", "install_year": null, "location": "OLD SAMBRO RD - SCHNARE RD" }, "geometry": { "type": "Point", "coordinates": [ -63.621613, 44.617212 ] } },
{ "type": "Feature", "properties": { "device_id": 189, "source_layer": "Traffic Control Location", "device_type": "RA-5 with Flashing Beacon", "install_year": null, "location": "OXFORD ST - NORWOOD ST" }, "geometry": { "type": "Point", "coordinates": [ -63.599366, 44.642784 ] } },
{ "type": "Feature", "properties": { "device_id": 190, "source_layer": "Traffic Control Location", "device_type": "RA-5 with Flashing Beacon", "install_year": null, "location": "PARKLAND DR - FAIRFAX DR" }, "geometry": { "type": "Point", "coordinates": [ -63.670617, 44.661619 ] } },
{ "type": "Feature", "properties": { "device_id": 191, "source_layer": "Traffic Control Location", "device_type": "RA-5 with Flashing Beacon", "install_year": null, "location": "PARKLAND DR - FARNHAMGATE RD" }, "geometry": { "type": "Point", "coordinates": [ -63.675999, 44.671228 ] } },
{ "type": "Feature", "properties": { "device_id": 192, "source_layer": "Traffic Control Location", "device_type": "RA-5 with Flashing Beacon", "install_year": null, "location": "PARKLAND DR - LANGBRAE DR" }, "geometry": { "type": "Point", "coordinates": [ -63.672249, 44.665755 ] } },
{ "type": "Feature", "properties": { "device_id": 193, "source_layer": "Traffic Control Location", "device_type": "RA-5 with Flashing Beacon", "install_year": null, "location": "PLEASANT ST - CAMERON ST" }, "geometry": { "type": "Point", "coordinates": [ -63.553408, 44.661868 ] } },
{ "type": "Feature", "properties": { "device_id": 194, "source_layer": "Traffic Control Location", "device_type": "RA-5 with Flashing Beacon", "install_year": null, "location": "PLEASANT ST - CARLETON" }, "geometry": { "type": "Point", "coordinates": [ -63.527301, 44.636199 ] } },
{ "type": "Feature", "properties": { "device_id": 195, "source_layer": "Traffic Control Location", "device_type": "RA-5 with Flashing Beacon", "install_year": null, "location": "PLEASANT ST - DARTMOUTH GENERAL HOSPITAL" }, "geometry": { "type": "Point", "coordinates": [ -63.548741, 44.653906 ] } },
{ "type": "Feature", "properties": { "device_id": 196, "source_layer": "Traffic Control Location", "device_type": "RA-5 with Flashing Beacon", "install_year": null, "location": "PLEASANT ST - MOUNT HOPE AVE - NS HOSPITAL" }, "geometry": { "type": "Point", "coordinates": [ -63.547572, 44.652015 ] } },
{ "type": "Feature", "properties": { "device_id": 197, "source_layer": "Traffic Control Location", "device_type": "RA-5 with Flashing Beacon", "install_year": null, "location": "PLEASANT ST - OLD FERRY RD" }, "geometry": { "type": "Point", "coordinates": [ -63.555503, 44.666283 ] } },
{ "type": "Feature", "properties": { "device_id": 198, "source_layer": "Traffic Control Location", "device_type": "RA-5 with Flashing Beacon", "install_year": null, "location": "PLEASANT ST - SHIRLEY ST - CRAWFORD ST" }, "geometry": { "type": "Point", "coordinates": [ -63.543102, 44.645656 ] } },
{ "type": "Feature", "properties": { "device_id": 199, "source_layer": "Traffic Control Location", "device_type": "RA-5 with Flashing Beacon", "install_year": null, "location": "PLEASANT ST CIVIC 352 - MAYFIELD DR (JOHNS LUNCH)" }, "geometry": { "type": "Point", "coordinates": [ -63.546765, 44.650633 ] } },
{ "type": "Feature", "properties": { "device_id": 200, "source_layer": "Traffic Control Location", "device_type": "RA-5 with Flashing Beacon", "install_year": null, "location": "PORTLAND ST - FOSTON ST" }, "geometry": { "type": "Point", "coordinates": [ -63.55306, 44.667956 ] } },
{ "type": "Feature", "properties": { "device_id": 201, "source_layer": "Traffic Control Location", "device_type": "RA-5 with Flashing Beacon", "install_year": null, "location": "PORTLAND ST - HAWTHORNE ST" }, "geometry": { "type": "Point", "coordinates": [ -63.558892, 44.668982 ] } },
{ "type": "Feature", "properties": { "device_id": 202, "source_layer": "Traffic Control Location", "device_type": "RA-5 with Flashing Beacon", "install_year": null, "location": "PORTLAND ST - JERSEY DR" }, "geometry": { "type": "Point", "coordinates": [ -63.522481, 44.672095 ] } },
{ "type": "Feature", "properties": { "device_id": 203, "source_layer": "Traffic Control Location", "device_type": "RA-5 with Flashing Beacon", "install_year": null, "location": "PORTLAND ST - LAKEFRONT RD" }, "geometry": { "type": "Point", "coordinates": [ -63.548296, 44.66741 ] } },
{ "type": "Feature", "properties": { "device_id": 204, "source_layer": "Traffic Control Location", "device_type": "RA-5 with Flashing Beacon", "install_year": null, "location": "PORTLAND ST - SETTLE ST" }, "geometry": { "type": "Point", "coordinates": [ -63.528588, 44.671125 ] } },
{ "type": "Feature", "properties": { "device_id": 205, "source_layer": "Traffic Control Location", "device_type": "RA-5 with Flashing Beacon", "install_year": null, "location": "PRINCE ALBERT RD - SINCLAIR ST" }, "geometry": { "type": "Point", "coordinates": [ -63.555371, 44.678255 ] } },
{ "type": "Feature", "properties": { "device_id": 206, "source_layer": "Traffic Control Location", "device_type": "RA-5 with Flashing Beacon", "install_year": null, "location": "PRINCE ALBERT RD CIVIC 163 - MIC-MAC AMATEUR AQUATIC CLUB" }, "geometry": { "type": "Point", "coordinates": [ -63.560646, 44.674306 ] } },
{ "type": "Feature", "properties": { "device_id": 207, "source_layer": "Traffic Control Location", "device_type": "RA-5 with Flashing Beacon", "install_year": null, "location": "PRINCE ARTHUR AVE - RODNEY RD" }, "geometry": { "type": "Point", "coordinates": [ -63.548776, 44.664674 ] } },
{ "type": "Feature", "properties": { "device_id": 208, "source_layer": "Traffic Control Location", "device_type": "RA-5 with Flashing Beacon", "install_year": null, "location": "PURCELLS COVE RD - ANCHOR DR" }, "geometry": { "type": "Point", "coordinates": [ -63.61992, 44.636685 ] } },
{ "type": "Feature", "properties": { "device_id": 209, "source_layer": "Traffic Control Location", "device_type": "RA-5 with Flashing Beacon", "install_year": null, "location": "QUINPOOL RD - HORSESHOE ISLAND PARK" }, "geometry": { "type": "Point", "coordinates": [ -63.616692, 44.641309 ] } },
{ "type": "Feature", "properties": { "device_id": 210, "source_layer": "Traffic Control Location", "device_type": "RA-5 with Flashing Beacon", "install_year": null, "location": "QUINPOOL RD - QUINN ST" }, "geometry": { "type": "Point", "coordinates": [ -63.609489, 44.641707 ] } },
{ "type": "Feature", "properties": { "device_id": 211, "source_layer": "Traffic Control Location", "device_type": "RA-5 with Flashing Beacon", "install_year": null, "location": "ROBIE ST - CHARLES ST" }, "geometry": { "type": "Point", "coordinates": [ -63.593831, 44.653348 ] } },
{ "type": "Feature", "properties": { "device_id": 212, "source_layer": "Traffic Control Location", "device_type": "RA-5 with Flashing Beacon", "install_year": null, "location": "ROBIE ST - CHERRY ST (HOSPITAL)" }, "geometry": { "type": "Point", "coordinates": [ -63.589308, 44.644965 ] } },
{ "type": "Feature", "properties": { "device_id": 213, "source_layer": "Traffic Control Location", "device_type": "RA-5 with Flashing Beacon", "install_year": null, "location": "ROBIE ST - OAKLAND RD" }, "geometry": { "type": "Point", "coordinates": [ -63.584043, 44.63471 ] } },
{ "type": "Feature", "properties": { "device_id": 214, "source_layer": "Traffic Control Location", "device_type": "RA-5 with Flashing Beacon", "install_year": null, "location": "ROBIE ST - SHIRLEY ST" }, "geometry": { "type": "Point", "coordinates": [ -63.5897, 44.645876 ] } },
{ "type": "Feature", "properties": { "device_id": 215, "source_layer": "Traffic Control Location", "device_type": "RA-5 with Flashing Beacon", "install_year": null, "location": "ROBIE ST - ST ALBANS ST" }, "geometry": { "type": "Point", "coordinates": [ -63.597391, 44.656442 ] } },
{ "type": "Feature", "properties": { "device_id": 216, "source_layer": "Traffic Control Location", "device_type": "RA-5 with Flashing Beacon", "install_year": null, "location": "ROBIE ST - WELSFORD ST" }, "geometry": { "type": "Point", "coordinates": [ -63.591416, 44.64891 ] } },
{ "type": "Feature", "properties": { "device_id": 217, "source_layer": "Traffic Control Location", "device_type": "RA-5 with Flashing Beacon", "install_year": null, "location": "ROCKY LAKE DR - CENTRAL ST" }, "geometry": { "type": "Point", "coordinates": [ -63.654457, 44.735459 ] } },
{ "type": "Feature", "properties": { "device_id": 218, "source_layer": "Traffic Control Location", "device_type": "RA-5 with Flashing Beacon", "install_year": null, "location": "ROCKY LAKE DR - ROCKMANOR DR" }, "geometry": { "type": "Point", "coordinates": [ -63.651837, 44.737446 ] } },
{ "type": "Feature", "properties": { "device_id": 219, "source_layer": "Traffic Control Location", "device_type": "RA-5 with Flashing Beacon", "install_year": null, "location": "ROCKY LAKE DR - SCOTIA DR" }, "geometry": { "type": "Point", "coordinates": [ -63.648025, 44.73761 ] } },
{ "type": "Feature", "properties": { "device_id": 220, "source_layer": "Traffic Control Location", "device_type": "RA-5 with Flashing Beacon", "install_year": null, "location": "SACKVILLE DR - BEAVER BANK CROSS RD - JUBILEE LANE" }, "geometry": { "type": "Point", "coordinates": [ -63.704429, 44.781629 ] } },
{ "type": "Feature", "properties": { "device_id": 221, "source_layer": "Traffic Control Location", "device_type": "RA-5 with Flashing Beacon", "install_year": null, "location": "SACKVILLE DR - CONNOLLY RD" }, "geometry": { "type": "Point", "coordinates": [ -63.697593, 44.778124 ] } },
{ "type": "Feature", "properties": { "device_id": 222, "source_layer": "Traffic Control Location", "device_type": "RA-5 with Flashing Beacon", "install_year": null, "location": "SACKVILLE DR - SHARON DR" }, "geometry": { "type": "Point", "coordinates": [ -63.700574, 44.781384 ] } },
{ "type": "Feature", "properties": { "device_id": 223, "source_layer": "Traffic Control Location", "device_type": "RA-5 with Flashing Beacon", "install_year": null, "location": "SACKVILLE DR - SPRINGFIELD AVE - FENERTY RD" }, "geometry": { "type": "Point", "coordinates": [ -63.737073, 44.79985 ] } },
{ "type": "Feature", "properties": { "device_id": 224, "source_layer": "Traffic Control Location", "device_type": "RA-5 with Flashing Beacon", "install_year": null, "location": "SOUTH PARK ST - BRENTON PL" }, "geometry": { "type": "Point", "coordinates": [ -63.579153, 44.641074 ] } },
{ "type": "Feature", "properties": { "device_id": 225, "source_layer": "Traffic Control Location", "device_type": "RA-5 with Flashing Beacon", "install_year": null, "location": "SOUTH PARK ST - FENWICK ST" }, "geometry": { "type": "Point", "coordinates": [ -63.577276, 44.637146 ] } },
{ "type": "Feature", "properties": { "device_id": 226, "source_layer": "Traffic Control Location", "device_type": "RA-5 with Flashing Beacon", "install_year": null, "location": "SOUTH PARK ST - VICTORIA RD" }, "geometry": { "type": "Point", "coordinates": [ -63.576645, 44.635816 ] } },
{ "type": "Feature", "properties": { "device_id": 227, "source_layer": "Traffic Control Location", "device_type": "RA-5 with Flashing Beacon", "install_year": null, "location": "SPRING GARDEN RD - CARLTON ST" }, "geometry": { "type": "Point", "coordinates": [ -63.585079, 44.640864 ] } },
{ "type": "Feature", "properties": { "device_id": 228, "source_layer": "Traffic Control Location", "device_type": "RA-5 with Flashing Beacon", "install_year": null, "location": "ST MARGARETS BAY RD - FENWOOD RD - FENERTY RD" }, "geometry": { "type": "Point", "coordinates": [ -63.630622, 44.637117 ] } },
{ "type": "Feature", "properties": { "device_id": 229, "source_layer": "Traffic Control Location", "device_type": "RA-5 with Flashing Beacon", "install_year": null, "location": "ST MARGARETS BAY RD - SHEPPARDS RUN" }, "geometry": { "type": "Point", "coordinates": [ -63.676704, 44.635654 ] } },
{ "type": "Feature", "properties": { "device_id": 230, "source_layer": "Traffic Control Location", "device_type": "RA-5 with Flashing Beacon", "install_year": null, "location": "TITUS ST - EVANS AVE" }, "geometry": { "type": "Point", "coordinates": [ -63.635012, 44.660293 ] } },
{ "type": "Feature", "properties": { "device_id": 231, "source_layer": "Traffic Control Location", "device_type": "RA-5 with Flashing Beacon", "install_year": null, "location": "VALLEYFIELD RD - SPIKENARD ST" }, "geometry": { "type": "Point", "coordinates": [ -63.534198, 44.679034 ] } },
{ "type": "Feature", "properties": { "device_id": 232, "source_layer": "Traffic Control Location", "device_type": "RA-5 with Flashing Beacon", "install_year": null, "location": "VICTORIA RD - CHAPPELL ST" }, "geometry": { "type": "Point", "coordinates": [ -63.583314, 44.678908 ] } },
{ "type": "Feature", "properties": { "device_id": 233, "source_layer": "Traffic Control Location", "device_type": "RA-5 with Flashing Beacon", "install_year": null, "location": "VICTORIA RD - MOIRA ST" }, "geometry": { "type": "Point", "coordinates": [ -63.580995, 44.677563 ] } },
{ "type": "Feature", "properties": { "device_id": 234, "source_layer": "Traffic Control Location", "device_type": "RA-5 with Flashing Beacon", "install_year": null, "location": "WILLET ST - CHADWICK PL" }, "geometry": { "type": "Point", "coordinates": [ -63.65657, 44.660545 ] } },
{ "type": "Feature", "properties": { "device_id": 235, "source_layer": "Traffic Control Location", "device_type": "RA-5 with Flashing Beacon", "install_year": null, "location": "WILLETT ST - WESTRIDGE DR" }, "geometry": { "type": "Point", "coordinates": [ -63.654008, 44.657938 ] } },
{ "type": "Feature", "properties": { "device_id": 236, "source_layer": "Traffic Control Location", "device_type": "RA-5 with Flashing Beacon", "install_year": null, "location": "WINDMILL RD - FARRELL ST - YETTER PARK" }, "geometry": { "type": "Point", "coordinates": [ -63.591123, 44.676678 ] } },
{ "type": "Feature", "properties": { "device_id": 237, "source_layer": "Traffic Control Location", "device_type": "RA-5 with Flashing Beacon", "install_year": null, "location": "WINDMILL RD - JAMIESON ST" }, "geometry": { "type": "Point", "coordinates": [ -63.58492, 44.671105 ] } },
{ "type": "Feature", "properties": { "device_id": 238, "source_layer": "Traffic Control Location", "device_type": "RA-5 with Flashing Beacon", "install_year": null, "location": "WINDMILL RD - SPRINGHILL RD - LOVETT ST" }, "geometry": { "type": "Point", "coordinates": [ -63.593797, 44.678906 ] } },
{ "type": "Feature", "properties": { "device_id": 239, "source_layer": "Traffic Control Location", "device_type": "RA-5 with Flashing Beacon", "install_year": null, "location": "WOODLAND AVE - LAURIER ST" }, "geometry": { "type": "Point", "coordinates": [ -63.574294, 44.681908 ] } },
{ "type": "Feature", "properties": { "device_id": 240, "source_layer": "Traffic Control Location", "device_type": "RA-5 with Flashing Beacon", "install_year": null, "location": "WOODLAND AVE - PINEHILL RD - FREDERICK ST" }, "geometry": { "type": "Point", "coordinates": [ -63.575605, 44.680842 ] } },
{ "type": "Feature", "properties": { "device_id": 241, "source_layer": "Traffic Control Location", "device_type": "RA-5 with Flashing Beacon", "install_year": null, "location": "WOODLAND AVE - SLAYTER ST" }, "geometry": { "type": "Point", "coordinates": [ -63.579238, 44.677906 ] } },
{ "type": "Feature", "properties": { "device_id": 242, "source_layer": "Traffic Control Location", "device_type": "RA-5 with Flashing Beacon", "install_year": null, "location": "WOODLAWN RD - BELLE VISTA DR" }, "geometry": { "type": "Point", "coordinates": [ -63.527367, 44.677495 ] } },
{ "type": "Feature", "properties": { "device_id": 243, "source_layer": "Traffic Control Location", "device_type": "RA-5 with Flashing Beacon", "install_year": null, "location": "WOODLAWN RD - ELLENVALE AVE (ADVANCE FLASHER)" }, "geometry": { "type": "Point", "coordinates": [ -63.528816, 44.675837 ] } },
{ "type": "Feature", "properties": { "device_id": 244, "source_layer": "Traffic Control Location", "device_type": "RA-5 with Flashing Beacon", "install_year": null, "location": "WOODLAWN RD - SPIKENARD ST - PRINCE ANDREW HIGH SCHOOL" }, "geometry": { "type": "Point", "coordinates": [ -63.527454, 44.681329 ] } },
{ "type": "Feature", "properties": { "device_id": 245, "source_layer": "Traffic Control Location", "device_type": "RA-5 with Flashing Beacon", "install_year": null, "location": "WYSE RD - DAWSON ST" }, "geometry": { "type": "Point", "coordinates": [ -63.579497, 44.67117 ] } },
{ "type": "Feature", "properties": { "device_id": 246, "source_layer": "Traffic Control Location", "device_type": "RA-5 with Flashing Beacon", "install_year": null, "location": "WYSE RD - FAULKNER ST" }, "geometry": { "type": "Point", "coordinates": [ -63.578721, 44.670718 ] } },
{ "type": "Feature", "properties": { "device_id": 247, "source_layer": "Traffic Control Location", "device_type": "RA-5 with Flashing Beacon", "install_year": null, "location": "WYSE RD - JAMIESON ST" }, "geometry": { "type": "Point", "coordinates": [ -63.582649, 44.672936 ] } },
{ "type": "Feature", "properties": { "device_id": 248, "source_layer": "Traffic Control Location", "device_type": "RA-5 with Flashing Beacon", "install_year": null, "location": "WYSE RD - SPORTSPLEX" }, "geometry": { "type": "Point", "coordinates": [ -63.576088, 44.669272 ] } },
{ "type": "Feature", "properties": { "device_id": 249, "source_layer": "Traffic Control Location", "device_type": "RA-5 with Flashing Beacon", "install_year": null, "location": "YOUNG ST - ISLEVILLE ST - KAYE ST" }, "geometry": { "type": "Point", "coordinates": [ -63.599784, 44.661576 ] } },
{ "type": "Feature", "properties": { "device_id": 250, "source_layer": "Traffic Control Location", "device_type": "RA-5 with Flashing Beacon", "install_year": null, "location": "YOUNG ST - MONAGHAN DR" }, "geometry": { "type": "Point", "coordinates": [ -63.604037, 44.658408 ] } },
{ "type": "Feature", "properties": { "device_id": 251, "source_layer": "Traffic Control Location", "device_type": "Rectangular Rapid Flashing Beacon", "install_year": 2021, "location": "COBURG RD - HENRY ST" }, "geometry": { "type": "Point", "coordinates": [ -63.588829, 44.639597 ] } },
{ "type": "Feature", "properties": { "device_id": 252, "source_layer": "Traffic Control Location", "device_type": "Rectangular Rapid Flashing Beacon", "install_year": 2021, "location": "COBURG RD - LEMARCHANT ST" }, "geometry": { "type": "Point", "coordinates": [ -63.591092, 44.639038 ] } },
{ "type": "Feature", "properties": { "device_id": 253, "source_layer": "Traffic Control Location", "device_type": "Rectangular Rapid Flashing Beacon", "install_year": 2021, "location": "HERRING COVE RD - PURCELLS COVE RD" }, "geometry": { "type": "Point", "coordinates": [ -63.619913, 44.638227 ] } },
{ "type": "Feature", "properties": { "device_id": 254, "source_layer": "Traffic Control Location", "device_type": "Rectangular Rapid Flashing Beacon", "install_year": 2021, "location": "HERRING COVE RD - WOODCREST AVE - PRINCETON AVE" }, "geometry": { "type": "Point", "coordinates": [ -63.598491, 44.594034 ] } },
{ "type": "Feature", "properties": { "device_id": 255, "source_layer": "Traffic Control Location", "device_type": "Rectangular Rapid Flashing Beacon", "install_year": 2021, "location": "HIGHWAY 2 - OAKLEAF CRES" }, "geometry": { "type": "Point", "coordinates": [ -63.587648, 44.893323 ] } },
{ "type": "Feature", "properties": { "device_id": 256, "source_layer": "Traffic Control Location", "device_type": "Rectangular Rapid Flashing Beacon", "install_year": 2021, "location": "LOWER WATER ST - MORRIS ST" }, "geometry": { "type": "Point", "coordinates": [ -63.568768, 44.642415 ] } },
{ "type": "Feature", "properties": { "device_id": 257, "source_layer": "Traffic Control Location", "device_type": "Rectangular Rapid Flashing Beacon", "install_year": 2021, "location": "LOWER WATER ST - SACKVILLE ST" }, "geometry": { "type": "Point", "coordinates": [ -63.571085, 44.646894 ] } },
{ "type": "Feature", "properties": { "device_id": 258, "source_layer": "Traffic Control Location", "device_type": "Rectangular Rapid Flashing Beacon", "install_year": 2021, "location": "LUCASVILLE RD - OLD SACKVILLE DR" }, "geometry": { "type": "Point", "coordinates": [ -63.714585, 44.780833 ] } },
{ "type": "Feature", "properties": { "device_id": 259, "source_layer": "Traffic Control Location", "device_type": "Rectangular Rapid Flashing Beacon", "install_year": 2021, "location": "MAYNARD ST - NORTH ST" }, "geometry": { "type": "Point", "coordinates": [ -63.592604, 44.656262 ] } },
{ "type": "Feature", "properties": { "device_id": 260, "source_layer": "Traffic Control Location", "device_type": "Rectangular Rapid Flashing Beacon", "install_year": 2021, "location": "NORTH ST - GLADSTONE ST" }, "geometry": { "type": "Point", "coordinates": [ -63.597275, 44.652981 ] } },
{ "type": "Feature", "properties": { "device_id": 261, "source_layer": "Traffic Control Location", "device_type": "Rectangular Rapid Flashing Beacon", "install_year": 2021, "location": "OCHTERLONEY ST - PRINCE ALBERT RD" }, "geometry": { "type": "Point", "coordinates": [ -63.562982, 44.671453 ] } },
{ "type": "Feature", "properties": { "device_id": 262, "source_layer": "Traffic Control Location", "device_type": "Rectangular Rapid Flashing Beacon", "install_year": 2021, "location": "PRINCE ALBERT RD - LAKEVIEW POINT RD" }, "geometry": { "type": "Point", "coordinates": [ -63.551761, 44.679027 ] } },
{ "type": "Feature", "properties": { "device_id": 263, "source_layer": "Traffic Control Location", "device_type": "Rectangular Rapid Flashing Beacon", "install_year": 2021, "location": "PURCELLS COVE RD AT CIVIC 1520" }, "geometry": { "type": "Point", "coordinates": [ -63.608898, 44.62989 ] } },
{ "type": "Feature", "properties": { "device_id": 264, "source_layer": "Traffic Control Location", "device_type": "Rectangular Rapid Flashing Beacon", "install_year": 2021, "location": "QUEEN ST - CLYDE ST" }, "geometry": { "type": "Point", "coordinates": [ -63.575362, 44.642118 ] } },
{ "type": "Feature", "properties": { "device_id": 265, "source_layer": "Traffic Control Location", "device_type": "Rectangular Rapid Flashing Beacon", "install_year": 2021, "location": "SOUTH ST - TOWER RD" }, "geometry": { "type": "Point", "coordinates": [ -63.578987, 44.637874 ] } },
{ "type": "Feature", "properties": { "device_id": 266, "source_layer": "Traffic Control Location", "device_type": "Rectangular Rapid Flashing Beacon", "install_year": 2021, "location": "ST MARGARETS BAY RD - BRENTWOOD AVE" }, "geometry": { "type": "Point", "coordinates": [ -63.73314, 44.65531 ] } },
{ "type": "Feature", "properties": { "device_id": 267, "source_layer": "Traffic Control Location", "device_type": "Rectangular Rapid Flashing Beacon", "install_year": 2022, "location": "Agricola St/Charles St" }, "geometry": { "type": "Point", "coordinates": [ -63.592223, 44.654442 ] } },
{ "type": "Feature", "properties": { "device_id": 268, "source_layer": "Traffic Control Location", "device_type": "Rectangular Rapid Flashing Beacon", "install_year": 2022, "location": "BEDFORD HIGHWAY/SULLIVANS HILL" }, "geometry": { "type": "Point", "coordinates": [ -63.670473, 44.722863 ] } },
{ "type": "Feature", "properties": { "device_id": 269, "source_layer": "Traffic Control Location", "device_type": "Rectangular Rapid Flashing Beacon", "install_year": 2022, "location": "Beaver Bank Rd/Boxwood Cres" }, "geometry": { "type": "Point", "coordinates": [ -63.692108, 44.785852 ] } },
{ "type": "Feature", "properties": { "device_id": 270, "source_layer": "Traffic Control Location", "device_type": "Rectangular Rapid Flashing Beacon", "install_year": 2022, "location": "CALDWELL RD - CALDWELL SCHOOL" }, "geometry": { "type": "Point", "coordinates": [ -63.492886, 44.660721 ] } },
{ "type": "Feature", "properties": { "device_id": 271, "source_layer": "Traffic Control Location", "device_type": "Rectangular Rapid Flashing Beacon", "install_year": 2022, "location": "CALDWELL RD/DEERBROOKE DR" }, "geometry": { "type": "Point", "coordinates": [ -63.494844, 44.662953 ] } },
{ "type": "Feature", "properties": { "device_id": 272, "source_layer": "Traffic Control Location", "device_type": "Rectangular Rapid Flashing Beacon", "install_year": 2022, "location": "CALDWELL RD/NOVA TERRACE" }, "geometry": { "type": "Point", "coordinates": [ -63.490386, 44.657818 ] } },
{ "type": "Feature", "properties": { "device_id": 273, "source_layer": "Traffic Control Location", "device_type": "Rectangular Rapid Flashing Beacon", "install_year": 2022, "location": "CALDWELL RD/THORNCREST CRT" }, "geometry": { "type": "Point", "coordinates": [ -63.47157, 44.609262 ] } },
{ "type": "Feature", "properties": { "device_id": 274, "source_layer": "Traffic Control Location", "device_type": "Rectangular Rapid Flashing Beacon", "install_year": 2022, "location": "CALEDONIA RD AT ROLIEKA DR" }, "geometry": { "type": "Point", "coordinates": [ -63.530521, 44.687087 ] } },
{ "type": "Feature", "properties": { "device_id": 275, "source_layer": "Traffic Control Location", "device_type": "Rectangular Rapid Flashing Beacon", "install_year": 2022, "location": "CHEBUCTO RD-CHECBUCTO LN" }, "geometry": { "type": "Point", "coordinates": [ -63.597625, 44.649901 ] } },
{ "type": "Feature", "properties": { "device_id": 276, "source_layer": "Traffic Control Location", "device_type": "Rectangular Rapid Flashing Beacon", "install_year": 2022, "location": "COW BAY RD/KEYPORT AVE" }, "geometry": { "type": "Point", "coordinates": [ -63.469515, 44.614063 ] } },
{ "type": "Feature", "properties": { "device_id": 277, "source_layer": "Traffic Control Location", "device_type": "Rectangular Rapid Flashing Beacon", "install_year": 2022, "location": "CRICHTON AVE-DAHLIA ST" }, "geometry": { "type": "Point", "coordinates": [ -63.564733, 44.673666 ] } },
{ "type": "Feature", "properties": { "device_id": 278, "source_layer": "Traffic Control Location", "device_type": "Rectangular Rapid Flashing Beacon", "install_year": 2022, "location": "Coburg Rd/Lord Dalhousie Dr" }, "geometry": { "type": "Point", "coordinates": [ -63.594152, 44.638287 ] } },
{ "type": "Feature", "properties": { "device_id": 279, "source_layer": "Traffic Control Location", "device_type": "Rectangular Rapid Flashing Beacon", "install_year": 2022, "location": "Dutch Village Rd/Deal St/Rufus Ave" }, "geometry": { "type": "Point", "coordinates": [ -63.632258, 44.657386 ] } },
{ "type": "Feature", "properties": { "device_id": 280, "source_layer": "Traffic Control Location", "device_type": "Rectangular Rapid Flashing Beacon", "install_year": 2022, "location": "FALL RIVER RD/GORDON SNOW COMMUNITY CENTRE" }, "geometry": { "type": "Point", "coordinates": [ -63.616598, 44.813938 ] } },
{ "type": "Feature", "properties": { "device_id": 281, "source_layer": "Traffic Control Location", "device_type": "Rectangular Rapid Flashing Beacon", "install_year": 2022, "location": "GOTTINGEN ST/KAY ST/SULLIVAN ST" }, "geometry": { "type": "Point", "coordinates": [ -63.597871, 44.661993 ] } },
{ "type": "Feature", "properties": { "device_id": 282, "source_layer": "Traffic Control Location", "device_type": "Rectangular Rapid Flashing Beacon", "install_year": 2022, "location": "Gary Martin Dr/Innovation Dr" }, "geometry": { "type": "Point", "coordinates": [ -63.704289, 44.72389 ] } },
{ "type": "Feature", "properties": { "device_id": 283, "source_layer": "Traffic Control Location", "device_type": "Rectangular Rapid Flashing Beacon", "install_year": 2022, "location": "Gottingen St/Falkland St" }, "geometry": { "type": "Point", "coordinates": [ -63.582555, 44.651429 ] } },
{ "type": "Feature", "properties": { "device_id": 284, "source_layer": "Traffic Control Location", "device_type": "Rectangular Rapid Flashing Beacon", "install_year": 2022, "location": "Herring Cove Rd/Brighton Ave" }, "geometry": { "type": "Point", "coordinates": [ -63.618352, 44.630628 ] } },
{ "type": "Feature", "properties": { "device_id": 285, "source_layer": "Traffic Control Location", "device_type": "Rectangular Rapid Flashing Beacon", "install_year": 2022, "location": "Hwy 7 at East Petpeswick Rd" }, "geometry": { "type": "Point", "coordinates": [ -63.148518, 44.786875 ] } },
{ "type": "Feature", "properties": { "device_id": 286, "source_layer": "Traffic Control Location", "device_type": "Rectangular Rapid Flashing Beacon", "install_year": 2022, "location": "INNOVATION DR-GLADYS PORTER PL" }, "geometry": { "type": "Point", "coordinates": [ -63.698408, 44.722292 ] } },
{ "type": "Feature", "properties": { "device_id": 287, "source_layer": "Traffic Control Location", "device_type": "Rectangular Rapid Flashing Beacon", "install_year": 2022, "location": "LOWER WATER ST - BISHOP ST" }, "geometry": { "type": "Point", "coordinates": [ -63.569491, 44.643628 ] } },
{ "type": "Feature", "properties": { "device_id": 288, "source_layer": "Traffic Control Location", "device_type": "Rectangular Rapid Flashing Beacon", "install_year": 2022, "location": "LOWER WATER ST - SALTER ST" }, "geometry": { "type": "Point", "coordinates": [ -63.57056, 44.645295 ] } },
{ "type": "Feature", "properties": { "device_id": 289, "source_layer": "Traffic Control Location", "device_type": "Rectangular Rapid Flashing Beacon", "install_year": 2022, "location": "Lady Hammond Rd/Memorial Dr" }, "geometry": { "type": "Point", "coordinates": [ -63.616234, 44.664995 ] } },
{ "type": "Feature", "properties": { "device_id": 290, "source_layer": "Traffic Control Location", "device_type": "Rectangular Rapid Flashing Beacon", "install_year": 2022, "location": "MAIN AVE - LINEAR PARK TR" }, "geometry": { "type": "Point", "coordinates": [ -63.652522, 44.65147 ] } },
{ "type": "Feature", "properties": { "device_id": 291, "source_layer": "Traffic Control Location", "device_type": "Rectangular Rapid Flashing Beacon", "install_year": 2022, "location": "Main Rd - Civic 1493" }, "geometry": { "type": "Point", "coordinates": [ -63.4954, 44.612473 ] } },
{ "type": "Feature", "properties": { "device_id": 292, "source_layer": "Traffic Control Location", "device_type": "Rectangular Rapid Flashing Beacon", "install_year": 2022, "location": "PRINCE ALBERT/ELLIOT ST" }, "geometry": { "type": "Point", "coordinates": [ -63.562538, 44.672232 ] } },
{ "type": "Feature", "properties": { "device_id": 293, "source_layer": "Traffic Control Location", "device_type": "Rectangular Rapid Flashing Beacon", "install_year": 2022, "location": "RADCLIFFE DR - LINEAR PARK TR" }, "geometry": { "type": "Point", "coordinates": [ -63.664766, 44.664861 ] } },
{ "type": "Feature", "properties": { "device_id": 294, "source_layer": "Traffic Control Location", "device_type": "Rectangular Rapid Flashing Beacon", "install_year": 2022, "location": "ROSS RD/GLENDALE DR" }, "geometry": { "type": "Point", "coordinates": [ -63.454846, 44.689962 ] } },
{ "type": "Feature", "properties": { "device_id": 295, "source_layer": "Traffic Control Location", "device_type": "Rectangular Rapid Flashing Beacon", "install_year": 2022, "location": "Rocky Lake Dr - Civic 2483" }, "geometry": { "type": "Point", "coordinates": [ -63.59926, 44.782777 ] } },
{ "type": "Feature", "properties": { "device_id": 296, "source_layer": "Traffic Control Location", "device_type": "Rectangular Rapid Flashing Beacon", "install_year": 2022, "location": "VICTORIA RD - DAHLIA ST" }, "geometry": { "type": "Point", "coordinates": [ -63.568861, 44.67001 ] } },
{ "type": "Feature", "properties": { "device_id": 297, "source_layer": "Traffic Control Location", "device_type": "Rectangular Rapid Flashing Beacon", "install_year": 2022, "location": "WAVERLEY RD @ BREEZE DR" }, "geometry": { "type": "Point", "coordinates": [ -63.548398, 44.708659 ] } },
{ "type": "Feature", "properties": { "device_id": 298, "source_layer": "Traffic Control Location", "device_type": "Rectangular Rapid Flashing Beacon", "install_year": 2022, "location": "WAVERLEY RD/CRAIGBURN DR" }, "geometry": { "type": "Point", "coordinates": [ -63.543521, 44.722431 ] } },
{ "type": "Feature", "properties": { "device_id": 299, "source_layer": "Traffic Control Location", "device_type": "Rectangular Rapid Flashing Beacon", "install_year": 2023, "location": "ALBRO LAKE RD/LEAMAN DR" }, "geometry": { "type": "Point", "coordinates": [ -63.577934, 44.684961 ] } },
{ "type": "Feature", "properties": { "device_id": 300, "source_layer": "Traffic Control Location", "device_type": "Rectangular Rapid Flashing Beacon", "install_year": 2023, "location": "ARKLOW DR/MERRIMAC DR" }, "geometry": { "type": "Point", "coordinates": [ -63.486214, 44.675757 ] } },
{ "type": "Feature", "properties": { "device_id": 301, "source_layer": "Traffic Control Location", "device_type": "Rectangular Rapid Flashing Beacon", "install_year": 2023, "location": "Armdale @ Chebucto Rd" }, "geometry": { "type": "Point", "coordinates": [ -63.620063, 44.64193 ] } },
{ "type": "Feature", "properties": { "device_id": 302, "source_layer": "Traffic Control Location", "device_type": "Rectangular Rapid Flashing Beacon", "install_year": 2023, "location": "Armdale at Herring Cove Rd" }, "geometry": { "type": "Point", "coordinates": [ -63.620356, 44.641218 ] } },
{ "type": "Feature", "properties": { "device_id": 303, "source_layer": "Traffic Control Location", "device_type": "Rectangular Rapid Flashing Beacon", "install_year": 2023, "location": "Armdale at Joseph Howe Dr" }, "geometry": { "type": "Point", "coordinates": [ -63.620736, 44.641983 ] } },
{ "type": "Feature", "properties": { "device_id": 304, "source_layer": "Traffic Control Location", "device_type": "Rectangular Rapid Flashing Beacon", "install_year": 2023, "location": "Armdale at Quinpool Rd" }, "geometry": { "type": "Point", "coordinates": [ -63.619773, 44.641489 ] } },
{ "type": "Feature", "properties": { "device_id": 305, "source_layer": "Traffic Control Location", "device_type": "Rectangular Rapid Flashing Beacon", "install_year": 2023, "location": "Armdale at St Margarets Bay Rd" }, "geometry": { "type": "Point", "coordinates": [ -63.620985, 44.641663 ] } },
{ "type": "Feature", "properties": { "device_id": 306, "source_layer": "Traffic Control Location", "device_type": "Rectangular Rapid Flashing Beacon", "install_year": 2023, "location": "BEAUFORT RD - OAKLAND RD" }, "geometry": { "type": "Point", "coordinates": [ -63.592907, 44.632737 ] } },
{ "type": "Feature", "properties": { "device_id": 307, "source_layer": "Traffic Control Location", "device_type": "Rectangular Rapid Flashing Beacon", "install_year": 2023, "location": "BRAEMAR DR - CIVIC 172" }, "geometry": { "type": "Point", "coordinates": [ -63.546248, 44.691016 ] } },
{ "type": "Feature", "properties": { "device_id": 308, "source_layer": "Traffic Control Location", "device_type": "Rectangular Rapid Flashing Beacon", "install_year": 2023, "location": "BROAD ST - LARRY UTECK BLVD" }, "geometry": { "type": "Point", "coordinates": [ -63.714432, 44.71288 ] } },
{ "type": "Feature", "properties": { "device_id": 309, "source_layer": "Traffic Control Location", "device_type": "Rectangular Rapid Flashing Beacon", "install_year": 2023, "location": "BROAD ST - LARRY UTECK BLVD" }, "geometry": { "type": "Point", "coordinates": [ -63.713665, 44.712902 ] } },
{ "type": "Feature", "properties": { "device_id": 310, "source_layer": "Traffic Control Location", "device_type": "Rectangular Rapid Flashing Beacon", "install_year": 2023, "location": "BROAD ST - LARRY UTECK BLVD" }, "geometry": { "type": "Point", "coordinates": [ -63.714411, 44.713341 ] } },
{ "type": "Feature", "properties": { "device_id": 311, "source_layer": "Traffic Control Location", "device_type": "Rectangular Rapid Flashing Beacon", "install_year": 2023, "location": "BROAD ST - LARRY UTECK BLVD" }, "geometry": { "type": "Point", "coordinates": [ -63.713724, 44.713356 ] } },
{ "type": "Feature", "properties": { "device_id": 312, "source_layer": "Traffic Control Location", "device_type": "Rectangular Rapid Flashing Beacon", "install_year": 2023, "location": "Barrington St/George St" }, "geometry": { "type": "Point", "coordinates": [ -63.574543, 44.648153 ] } },
{ "type": "Feature", "properties": { "device_id": 313, "source_layer": "Traffic Control Location", "device_type": "Rectangular Rapid Flashing Beacon", "install_year": 2023, "location": "Beaver Bank Rd/Grove Ave" }, "geometry": { "type": "Point", "coordinates": [ -63.681514, 44.821275 ] } },
{ "type": "Feature", "properties": { "device_id": 314, "source_layer": "Traffic Control Location", "device_type": "Rectangular Rapid Flashing Beacon", "install_year": 2023, "location": "Beaver Bank Road at Mayflower Avenue" }, "geometry": { "type": "Point", "coordinates": [ -63.68065, 44.823746 ] } },
{ "type": "Feature", "properties": { "device_id": 315, "source_layer": "Traffic Control Location", "device_type": "Rectangular Rapid Flashing Beacon", "install_year": 2023, "location": "Beaver Bank Road at Welkin Drive" }, "geometry": { "type": "Point", "coordinates": [ -63.688243, 44.802326 ] } },
{ "type": "Feature", "properties": { "device_id": 316, "source_layer": "Traffic Control Location", "device_type": "Rectangular Rapid Flashing Beacon", "install_year": 2023, "location": "CALDWELL RD/MORRIS LAKE DR" }, "geometry": { "type": "Point", "coordinates": [ -63.487507, 44.65396 ] } },
{ "type": "Feature", "properties": { "device_id": 317, "source_layer": "Traffic Control Location", "device_type": "Rectangular Rapid Flashing Beacon", "install_year": 2023, "location": "CALDWELL RD/WEXFORD RD" }, "geometry": { "type": "Point", "coordinates": [ -63.499465, 44.667502 ] } },
{ "type": "Feature", "properties": { "device_id": 318, "source_layer": "Traffic Control Location", "device_type": "Rectangular Rapid Flashing Beacon", "install_year": 2023, "location": "CLAYTON PARK DR - HAZELHOLME DR" }, "geometry": { "type": "Point", "coordinates": [ -63.651035, 44.660508 ] } },
{ "type": "Feature", "properties": { "device_id": 319, "source_layer": "Traffic Control Location", "device_type": "Rectangular Rapid Flashing Beacon", "install_year": 2023, "location": "CRANBERRY CRES - AT WALKWAY CIVIC 78" }, "geometry": { "type": "Point", "coordinates": [ -63.502567, 44.683994 ] } },
{ "type": "Feature", "properties": { "device_id": 320, "source_layer": "Traffic Control Location", "device_type": "Rectangular Rapid Flashing Beacon", "install_year": 2023, "location": "CUNARD ST - MAYNARD ST" }, "geometry": { "type": "Point", "coordinates": [ -63.58691, 44.652326 ] } },
{ "type": "Feature", "properties": { "device_id": 321, "source_layer": "Traffic Control Location", "device_type": "Rectangular Rapid Flashing Beacon", "install_year": 2023, "location": "Caldwell Rd Civic 86" }, "geometry": { "type": "Point", "coordinates": [ -63.489724, 44.612506 ] } },
{ "type": "Feature", "properties": { "device_id": 322, "source_layer": "Traffic Control Location", "device_type": "Rectangular Rapid Flashing Beacon", "install_year": 2023, "location": "Caldwell Rd at Shearwater Flyer Trail" }, "geometry": { "type": "Point", "coordinates": [ -63.483975, 44.627033 ] } },
{ "type": "Feature", "properties": { "device_id": 323, "source_layer": "Traffic Control Location", "device_type": "Rectangular Rapid Flashing Beacon", "install_year": 2023, "location": "Chain Lake Dr at COLTA Trail" }, "geometry": { "type": "Point", "coordinates": [ -63.661603, 44.639491 ] } },
{ "type": "Feature", "properties": { "device_id": 324, "source_layer": "Traffic Control Location", "device_type": "Rectangular Rapid Flashing Beacon", "install_year": 2023, "location": "Cow Bay Rd at Briarwood Dr" }, "geometry": { "type": "Point", "coordinates": [ -63.487001, 44.611647 ] } },
{ "type": "Feature", "properties": { "device_id": 325, "source_layer": "Traffic Control Location", "device_type": "Rectangular Rapid Flashing Beacon", "install_year": 2023, "location": "Cow Bay Rd at Civic 33" }, "geometry": { "type": "Point", "coordinates": [ -63.491996, 44.612127 ] } },
{ "type": "Feature", "properties": { "device_id": 326, "source_layer": "Traffic Control Location", "device_type": "Rectangular Rapid Flashing Beacon", "install_year": 2023, "location": "Cunard Street at Princess Place" }, "geometry": { "type": "Point", "coordinates": [ -63.590757, 44.65105 ] } },
{ "type": "Feature", "properties": { "device_id": 327, "source_layer": "Traffic Control Location", "device_type": "Rectangular Rapid Flashing Beacon", "install_year": 2023, "location": "Farnham Gate Rd at Linear Park Trail" }, "geometry": { "type": "Point", "coordinates": [ -63.671066, 44.672049 ] } },
{ "type": "Feature", "properties": { "device_id": 328, "source_layer": "Traffic Control Location", "device_type": "Rectangular Rapid Flashing Beacon", "install_year": 2023, "location": "HERRING COVE RD - OCEANBREEZE AVE" }, "geometry": { "type": "Point", "coordinates": [ -63.568087, 44.57023 ] } },
{ "type": "Feature", "properties": { "device_id": 329, "source_layer": "Traffic Control Location", "device_type": "Rectangular Rapid Flashing Beacon", "install_year": 2023, "location": "HWY 7-OLD PRESTON RD" }, "geometry": { "type": "Point", "coordinates": [ -63.439354, 44.709785 ] } },
{ "type": "Feature", "properties": { "device_id": 330, "source_layer": "Traffic Control Location", "device_type": "Rectangular Rapid Flashing Beacon", "install_year": 2023, "location": "Herring Cove Rd/McIntosh St" }, "geometry": { "type": "Point", "coordinates": [ -63.607868, 44.600944 ] } },
{ "type": "Feature", "properties": { "device_id": 331, "source_layer": "Traffic Control Location", "device_type": "Rectangular Rapid Flashing Beacon", "install_year": 2023, "location": "Hobsons Lake Dr @ COLTA Trail" }, "geometry": { "type": "Point", "coordinates": [ -63.678343, 44.641958 ] } },
{ "type": "Feature", "properties": { "device_id": 332, "source_layer": "Traffic Control Location", "device_type": "Rectangular Rapid Flashing Beacon", "install_year": 2023, "location": "Horseshoe Lake Dr at COLTA Trail" }, "geometry": { "type": "Point", "coordinates": [ -63.674533, 44.643498 ] } },
{ "type": "Feature", "properties": { "device_id": 333, "source_layer": "Traffic Control Location", "device_type": "Rectangular Rapid Flashing Beacon", "install_year": 2023, "location": "Joseph Howe Rd Ramp at Bedford Highway" }, "geometry": { "type": "Point", "coordinates": [ -63.627332, 44.662429 ] } },
{ "type": "Feature", "properties": { "device_id": 334, "source_layer": "Traffic Control Location", "device_type": "Rectangular Rapid Flashing Beacon", "install_year": 2023, "location": "Langbrae Dr a Linear Park Trail" }, "geometry": { "type": "Point", "coordinates": [ -63.668182, 44.66876 ] } },
{ "type": "Feature", "properties": { "device_id": 335, "source_layer": "Traffic Control Location", "device_type": "Rectangular Rapid Flashing Beacon", "install_year": 2023, "location": "Larry Uteck Boulevard near Civic 230" }, "geometry": { "type": "Point", "coordinates": [ -63.668646, 44.700091 ] } },
{ "type": "Feature", "properties": { "device_id": 336, "source_layer": "Traffic Control Location", "device_type": "Rectangular Rapid Flashing Beacon", "install_year": 2023, "location": "MAIN AVE - FORD ST" }, "geometry": { "type": "Point", "coordinates": [ -63.632243, 44.660439 ] } },
{ "type": "Feature", "properties": { "device_id": 337, "source_layer": "Traffic Control Location", "device_type": "Rectangular Rapid Flashing Beacon", "install_year": 2023, "location": "Metropolitan Ave at Kingfisher Way" }, "geometry": { "type": "Point", "coordinates": [ -63.675083, 44.777111 ] } },
{ "type": "Feature", "properties": { "device_id": 338, "source_layer": "Traffic Control Location", "device_type": "Rectangular Rapid Flashing Beacon", "install_year": 2023, "location": "Mount Edward Rd at Wanda Ln" }, "geometry": { "type": "Point", "coordinates": [ -63.52269, 44.681257 ] } },
{ "type": "Feature", "properties": { "device_id": 339, "source_layer": "Traffic Control Location", "device_type": "Rectangular Rapid Flashing Beacon", "install_year": 2023, "location": "NORTH ST - BRUNSWICK ST" }, "geometry": { "type": "Point", "coordinates": [ -63.589605, 44.658442 ] } },
{ "type": "Feature", "properties": { "device_id": 340, "source_layer": "Traffic Control Location", "device_type": "Rectangular Rapid Flashing Beacon", "install_year": 2023, "location": "North Preston Rd at Cain St" }, "geometry": { "type": "Point", "coordinates": [ -63.464655, 44.743019 ] } },
{ "type": "Feature", "properties": { "device_id": 341, "source_layer": "Traffic Control Location", "device_type": "Rectangular Rapid Flashing Beacon", "install_year": 2023, "location": "OLD SACKVILLE RD/WALKER AVE" }, "geometry": { "type": "Point", "coordinates": [ -63.696725, 44.769383 ] } },
{ "type": "Feature", "properties": { "device_id": 342, "source_layer": "Traffic Control Location", "device_type": "Rectangular Rapid Flashing Beacon", "install_year": 2023, "location": "PORTLAND ST/MAITLAND ST" }, "geometry": { "type": "Point", "coordinates": [ -63.561937, 44.667967 ] } },
{ "type": "Feature", "properties": { "device_id": 343, "source_layer": "Traffic Control Location", "device_type": "Rectangular Rapid Flashing Beacon", "install_year": 2023, "location": "Rocky Lane Dr at Civic 426 (Old Jr High)" }, "geometry": { "type": "Point", "coordinates": [ -63.643376, 44.740443 ] } },
{ "type": "Feature", "properties": { "device_id": 344, "source_layer": "Traffic Control Location", "device_type": "Rectangular Rapid Flashing Beacon", "install_year": 2023, "location": "SPRING GARDEN RD - BRUNSWICK ST" }, "geometry": { "type": "Point", "coordinates": [ -63.574883, 44.64361 ] } },
{ "type": "Feature", "properties": { "device_id": 345, "source_layer": "Traffic Control Location", "device_type": "Rectangular Rapid Flashing Beacon", "install_year": 2023, "location": "SPRING GARDEN RD/GRAFTON ST" }, "geometry": { "type": "Point", "coordinates": [ -63.573882, 44.643876 ] } },
{ "type": "Feature", "properties": { "device_id": 346, "source_layer": "Traffic Control Location", "device_type": "Rectangular Rapid Flashing Beacon", "install_year": 2023, "location": "ST MARGARETS BAY RD - CHURCH ST" }, "geometry": { "type": "Point", "coordinates": [ -63.699459, 44.637389 ] } },
{ "type": "Feature", "properties": { "device_id": 347, "source_layer": "Traffic Control Location", "device_type": "Rectangular Rapid Flashing Beacon", "install_year": 2023, "location": "Sackville Dr/Orchard Dr/Bambrick Rd" }, "geometry": { "type": "Point", "coordinates": [ -63.730945, 44.796145 ] } },
{ "type": "Feature", "properties": { "device_id": 348, "source_layer": "Traffic Control Location", "device_type": "Rectangular Rapid Flashing Beacon", "install_year": 2023, "location": "Shore Rd at Gov Wharf Rd" }, "geometry": { "type": "Point", "coordinates": [ -63.492741, 44.610159 ] } },