{"type": "FeatureCollection", "features": [{"type": "Feature", "id": 1, "geometry": {"type": "Point", "coordinates": [-63.6852533656072, 44.7744912412548]}, "properties": {"OBJECTID": 1, "SUPPORTID": "SS106560", "LOCGEN": "ROW", "TYPEPOLE": "STANDARD", "POLEUSE": "LPL", "SIGNID": "SGN1858", "OWNER": "HRM", "SIGNTYPE": "SPDSGN", "INSTYR": 2021, "ASSETSTAT": "INS", "LOCATION": "1196 Riverside Drive", "MAINTBY": "HRM", "ADDDATE": 1762436776000, "MODDATE": 1762971380000, "SDATE": 1762387200000, "SOURCE": "Traffic Management", "SACC": "IN"}}, {"type": "Feature", "id": 2, "geometry": {"type": "Point", "coordinates": [-63.6852533656072, 44.7744912412548]}, "properties": {"OBJECTID": 2, "SUPPORTID": "SS106560", "LOCGEN": "ROW", "TYPEPOLE": "STANDARD", "POLEUSE": "LPL", "SIGNID": "SGN1720", "OWNER": "HRM", "SIGNTYPE": "SPDSGN", "INSTYR": 2021, "ASSETSTAT": "INS", "LOCATION": "1196 Riverside Dr", "MAINTBY": "HRM", "ADDDATE": 1646836433000, "MODDATE": 1646836433000, "SDATE": null, "SOURCE": "CA", "SACC": "DG"}}, {"type": "Feature", "id": 3, "geometry": {"type": "Point", "coordinates": [-63.5469780421188, 44.6512262944389]}, "properties": {"OBJECTID": 3, "SUPPORTID": "SS106577", "LOCGEN": "ROW", "TYPEPOLE": "STANDARD", "POLEUSE": "UTIL", "SIGNID": "SGN1725", "OWNER": "HRM", "SIGNTYPE": "SPDSGN", "INSTYR": 2021, "ASSETSTAT": "DIS", "LOCATION": "345 Pleasant St", "MAINTBY": "HRM", "ADDDATE": 1648745890000, "MODDATE": 1680113627000, "SDATE": null, "SOURCE": "CA", "SACC": "DG"}}, {"type": "Feature", "id": 4, "geometry": {"type": "Point", "coordinates": [-63.5549572530698, 44.6783792645326]}, "properties": {"OBJECTID": 4, "SUPPORTID": "SS28466", "LOCGEN": "ROW", "TYPEPOLE": "STANDARD", "POLEUSE": "LPL", "SIGNID": "SGN1745", "OWNER": "HRM", "SIGNTYPE": "SPDSGN", "INSTYR": 2023, "ASSETSTAT": "INS", "LOCATION": "Prince Albert Road, Inbound", "MAINTBY": "HRM", "ADDDATE": 1680181559000, "MODDATE": 1680182198000, "SDATE": 1680048000000, "SOURCE": "CA", "SACC": "DG"}}, {"type": "Feature", "id": 5, "geometry": {"type": "Point", "coordinates": [-63.5976512059987, 44.6231942548142]}, "properties": {"OBJECTID": 5, "SUPPORTID": "SS16881", "LOCGEN": "ROW", "TYPEPOLE": "STANDARD", "POLEUSE": "LPL", "SIGNID": "SGN1888", "OWNER": "HRM", "SIGNTYPE": "SPDSGN", "INSTYR": 2025, "ASSETSTAT": "INS", "LOCATION": "1945 Purcells Cove Road", "MAINTBY": "HRM", "ADDDATE": 1762968879000, "MODDATE": 1762971424000, "SDATE": 1762387200000, "SOURCE": "Traffic Management", "SACC": "IN"}}, {"type": "Feature", "id": 6, "geometry": {"type": "Point", "coordinates": [-63.5963228168824, 44.6370336148818]}, "properties": {"OBJECTID": 6, "SUPPORTID": "SS2676", "LOCGEN": "ROW", "TYPEPOLE": "STANDARD", "POLEUSE": "LPL", "SIGNID": "SGN1740", "OWNER": "HRM", "SIGNTYPE": "SPDSGN", "INSTYR": 2023, "ASSETSTAT": "INS", "LOCATION": "Oxford Street before Coburg Road", "MAINTBY": "HRM", "ADDDATE": 1680179577000, "MODDATE": 1680179577000, "SDATE": 1680048000000, "SOURCE": "CA", "SACC": "DG"}}, {"type": "Feature", "id": 7, "geometry": {"type": "Point", "coordinates": [-63.5822230479308, 44.645242930107]}, "properties": {"OBJECTID": 7, "SUPPORTID": "SS5703", "LOCGEN": "ROW", "TYPEPOLE": "STANDARD", "POLEUSE": "LPL", "SIGNID": "SGN1879", "OWNER": "HRM", "SIGNTYPE": "SPDSGN", "INSTYR": 2025, "ASSETSTAT": "INS", "LOCATION": "Bell Road at Garrison Grounds driveway", "MAINTBY": "HRM", "ADDDATE": 1762967937000, "MODDATE": 1762971411000, "SDATE": 1762387200000, "SOURCE": "Traffic Management", "SACC": "IN"}}, {"type": "Feature", "id": 8, "geometry": {"type": "Point", "coordinates": [-63.7377562944146, 44.6559893199931]}, "properties": {"OBJECTID": 8, "SUPPORTID": "SS107566", "LOCGEN": "ROW", "TYPEPOLE": "STANDARD", "POLEUSE": "UTIL", "SIGNID": "SGN1889", "OWNER": "HRM", "SIGNTYPE": "SPDSGN", "INSTYR": 2025, "ASSETSTAT": "INS", "LOCATION": "39 Maplewood Drive", "MAINTBY": "HRM", "ADDDATE": 1762969010000, "MODDATE": 1762971425000, "SDATE": 1762387200000, "SOURCE": "Traffic Management", "SACC": "IN"}}, {"type": "Feature", "id": 9, "geometry": {"type": "Point", "coordinates": [-63.6979231396957, 44.7904002079129]}, "properties": {"OBJECTID": 9, "SUPPORTID": "SS8155", "LOCGEN": "ROW", "TYPEPOLE": "STANDARD", "POLEUSE": "LPL", "SIGNID": "SGN1894", "OWNER": "HRM", "SIGNTYPE": "SPDSGN", "INSTYR": 2025, "ASSETSTAT": "INS", "LOCATION": "398 Millwood Drive", "MAINTBY": "HRM", "ADDDATE": 1762969804000, "MODDATE": 1762971433000, "SDATE": 1762387200000, "SOURCE": "Traffic Management", "SACC": "IN"}}, {"type": "Feature", "id": 10, "geometry": {"type": "Point", "coordinates": [-63.6723348165754, 44.6082956326056]}, "properties": {"OBJECTID": 10, "SUPPORTID": "SS107567", "LOCGEN": "ROW", "TYPEPOLE": "STANDARD", "POLEUSE": "UTIL", "SIGNID": "SGN1891", "OWNER": "HRM", "SIGNTYPE": "SPDSGN", "INSTYR": 2025, "ASSETSTAT": "INS", "LOCATION": "Prospect Road before Evergreen Pl", "MAINTBY": "HRM", "ADDDATE": 1762969320000, "MODDATE": 1762971428000, "SDATE": 1762387200000, "SOURCE": "Traffic Management", "SACC": "IN"}}, {"type": "Feature", "id": 11, "geometry": {"type": "Point", "coordinates": [-63.6491228886229, 44.6487258958725]}, "properties": {"OBJECTID": 11, "SUPPORTID": "SS106557", "LOCGEN": "ROW", "TYPEPOLE": "STANDARD", "POLEUSE": "LPL", "SIGNID": "SGN1715", "OWNER": "HRM", "SIGNTYPE": "SPDSGN", "INSTYR": 2021, "ASSETSTAT": "DIS", "LOCATION": "Dunbrack St north of 102", "MAINTBY": "HRM", "ADDDATE": 1646833803000, "MODDATE": 1680113627000, "SDATE": null, "SOURCE": "CA", "SACC": "DG"}}, {"type": "Feature", "id": 12, "geometry": {"type": "Point", "coordinates": [-63.6184105733254, 44.6437567305525]}, "properties": {"OBJECTID": 12, "SUPPORTID": "SS13953", "LOCGEN": "ROW", "TYPEPOLE": "STANDARD", "POLEUSE": "LPL", "SIGNID": "SGN1883", "OWNER": "HRM", "SIGNTYPE": "SPDSGN", "INSTYR": 2025, "ASSETSTAT": "INS", "LOCATION": "7070 Chebucto Road", "MAINTBY": null, "ADDDATE": 1762968399000, "MODDATE": 1762971415000, "SDATE": 1762387200000, "SOURCE": "Traffic Management", "SACC": "IN"}}, {"type": "Feature", "id": 13, "geometry": {"type": "Point", "coordinates": [-63.5591411214713, 44.6753793085881]}, "properties": {"OBJECTID": 13, "SUPPORTID": "SS107563", "LOCGEN": "ROW", "TYPEPOLE": "STANDARD", "POLEUSE": "UTIL", "SIGNID": "SGN1876", "OWNER": "HRM", "SIGNTYPE": "SPDSGN", "INSTYR": 2025, "ASSETSTAT": "INS", "LOCATION": "192 Prince Albert Road", "MAINTBY": "HRM", "ADDDATE": 1762535625000, "MODDATE": 1762971405000, "SDATE": 1762387200000, "SOURCE": "Traffic Management", "SACC": "IN"}}, {"type": "Feature", "id": 14, "geometry": {"type": "Point", "coordinates": [-63.6260321856231, 44.6449659873703]}, "properties": {"OBJECTID": 14, "SUPPORTID": "SS14090", "LOCGEN": "ROW", "TYPEPOLE": "STANDARD", "POLEUSE": "LPL", "SIGNID": "SGN1884", "OWNER": "HRM", "SIGNTYPE": "SPDSGN", "INSTYR": 2025, "ASSETSTAT": "INS", "LOCATION": "2843 Joseph Howe Drive", "MAINTBY": "HRM", "ADDDATE": 1762968458000, "MODDATE": 1762971417000, "SDATE": 1762387200000, "SOURCE": "Traffic Management", "SACC": "IN"}}, {"type": "Feature", "id": 15, "geometry": {"type": "Point", "coordinates": [-63.5283994285691, 44.7230645382003]}, "properties": {"OBJECTID": 15, "SUPPORTID": "SS107558", "LOCGEN": null, "TYPEPOLE": "STANDARD", "POLEUSE": "UTIL", "SIGNID": "SGN1868", "OWNER": "HRM", "SIGNTYPE": "SPDSGN", "INSTYR": 2025, "ASSETSTAT": "INS", "LOCATION": "1020 Montague Road", "MAINTBY": "HRM", "ADDDATE": 1762444199000, "MODDATE": 1762971387000, "SDATE": 1762387200000, "SOURCE": "Traffic Management", "SACC": "IN"}}, {"type": "Feature", "id": 16, "geometry": {"type": "Point", "coordinates": [-63.6874655622157, 44.7203687942337]}, "properties": {"OBJECTID": 16, "SUPPORTID": "SS14923", "LOCGEN": "ROW", "TYPEPOLE": "STANDARD", "POLEUSE": "LPL", "SIGNID": "SGN1897", "OWNER": "HRM", "SIGNTYPE": "SPDSGN", "INSTYR": 2025, "ASSETSTAT": "INS", "LOCATION": "Hammonds Plains Road after Brookshire Court", "MAINTBY": "HRM", "ADDDATE": 1762970104000, "MODDATE": 1762971437000, "SDATE": 1762387200000, "SOURCE": "Traffic Management", "SACC": "IN"}}, {"type": "Feature", "id": 17, "geometry": {"type": "Point", "coordinates": [-63.6874655622157, 44.7203687942337]}, "properties": {"OBJECTID": 17, "SUPPORTID": "SS14923", "LOCGEN": "ROW", "TYPEPOLE": "STANDARD", "POLEUSE": "LPL", "SIGNID": "SGN1721", "OWNER": "HRM", "SIGNTYPE": "SPDSGN", "INSTYR": 2021, "ASSETSTAT": "DIS", "LOCATION": "211 Hammonds Plains Rd", "MAINTBY": "HRM", "ADDDATE": 1646836659000, "MODDATE": 1680113627000, "SDATE": null, "SOURCE": "CA", "SACC": "DG"}}, {"type": "Feature", "id": 18, "geometry": {"type": "Point", "coordinates": [-63.4860631731082, 44.6123279173864]}, "properties": {"OBJECTID": 18, "SUPPORTID": "SS29993", "LOCGEN": "ROW", "TYPEPOLE": "STANDARD", "POLEUSE": "LPL", "SIGNID": "SGN1871", "OWNER": "HRM", "SIGNTYPE": "SPDSGN", "INSTYR": 2025, "ASSETSTAT": "INS", "LOCATION": "15 Briarwood Drive", "MAINTBY": "HRM", "ADDDATE": 1762526719000, "MODDATE": 1762971393000, "SDATE": 1762387200000, "SOURCE": "Traffic Management", "SACC": "IN"}}, {"type": "Feature", "id": 19, "geometry": {"type": "Point", "coordinates": [-63.6560009608684, 44.6498272276482]}, "properties": {"OBJECTID": 19, "SUPPORTID": "SS21505", "LOCGEN": "ROW", "TYPEPOLE": "STANDARD", "POLEUSE": "LPL", "SIGNID": "SGN1738", "OWNER": "HRM", "SIGNTYPE": "SPDSGN", "INSTYR": 2023, "ASSETSTAT": "INS", "LOCATION": "Washmill Lake Dr between Bently & Main, EB", "MAINTBY": "HRM", "ADDDATE": 1680178734000, "MODDATE": 1680178734000, "SDATE": 1680048000000, "SOURCE": "CA", "SACC": "DG"}}, {"type": "Feature", "id": 20, "geometry": {"type": "Point", "coordinates": [-63.6257186107069, 44.6446298935584]}, "properties": {"OBJECTID": 20, "SUPPORTID": "SS106977", "LOCGEN": "ROW", "TYPEPOLE": "STANDARD", "POLEUSE": "SPL", "SIGNID": "SGN1739", "OWNER": "HRM", "SIGNTYPE": "SPDSGN", "INSTYR": 2023, "ASSETSTAT": "INS", "LOCATION": "Joseph Howe Drive before Armdale Roundabout", "MAINTBY": "HRM", "ADDDATE": 1680178946000, "MODDATE": 1680179577000, "SDATE": 1680048000000, "SOURCE": "CA", "SACC": "DG"}}, {"type": "Feature", "id": 21, "geometry": {"type": "Point", "coordinates": [-63.4626610816915, 44.7050586616268]}, "properties": {"OBJECTID": 21, "SUPPORTID": "SS21791", "LOCGEN": "ROW", "TYPEPOLE": "STANDARD", "POLEUSE": "LPL", "SIGNID": "SGN1723", "OWNER": "HRM", "SIGNTYPE": "SPDSGN", "INSTYR": 2021, "ASSETSTAT": "DIS", "LOCATION": "Intersection of Hwy 7 and Lorne", "MAINTBY": "HRM", "ADDDATE": 1648744812000, "MODDATE": 1680113627000, "SDATE": null, "SOURCE": "CA", "SACC": "DG"}}, {"type": "Feature", "id": 22, "geometry": {"type": "Point", "coordinates": [-63.6434765359894, 44.7265663787727]}, "properties": {"OBJECTID": 22, "SUPPORTID": "SS11528", "LOCGEN": "ROW", "TYPEPOLE": "STANDARD", "POLEUSE": "LPL", "SIGNID": "SGN1692", "OWNER": "HRM", "SIGNTYPE": "SPDSGN", "INSTYR": null, "ASSETSTAT": "INS", "LOCATION": "Dartmouth Rd at end of ramp", "MAINTBY": "HRM", "ADDDATE": 1622208423000, "MODDATE": 1680178076000, "SDATE": null, "SOURCE": "Traffic Management", "SACC": "DG"}}, {"type": "Feature", "id": 23, "geometry": {"type": "Point", "coordinates": [-63.584223836817, 44.6354250526927]}, "properties": {"OBJECTID": 23, "SUPPORTID": "SS2276", "LOCGEN": "ROW", "TYPEPOLE": "STANDARD", "POLEUSE": "LPL", "SIGNID": "SGN1741", "OWNER": "HRM", "SIGNTYPE": "SPDSGN", "INSTYR": 2023, "ASSETSTAT": "INS", "LOCATION": "Robie Street south of South Street", "MAINTBY": "HRM", "ADDDATE": 1680179745000, "MODDATE": 1680179745000, "SDATE": 1680048000000, "SOURCE": "CA", "SACC": "DG"}}, {"type": "Feature", "id": 24, "geometry": {"type": "Point", "coordinates": [-63.5034671927115, 44.6920496349306]}, "properties": {"OBJECTID": 24, "SUPPORTID": "SS107564", "LOCGEN": "ROW", "TYPEPOLE": "STANDARD", "POLEUSE": "UTIL", "SIGNID": "SGN1877", "OWNER": "HRM", "SIGNTYPE": "SPDSGN", "INSTYR": 2025, "ASSETSTAT": "INS", "LOCATION": "Main Street after Ridgecrest Drive", "MAINTBY": "HRM", "ADDDATE": 1762536234000, "MODDATE": 1762971409000, "SDATE": 1762387200000, "SOURCE": "Traffic Management", "SACC": "IN"}}, {"type": "Feature", "id": 25, "geometry": {"type": "Point", "coordinates": [-63.4973739794281, 44.7016743430259]}, "properties": {"OBJECTID": 25, "SUPPORTID": "SS107562", "LOCGEN": "ROW", "TYPEPOLE": "STANDARD", "POLEUSE": "UTIL", "SIGNID": "SGN1874", "OWNER": "HRM", "SIGNTYPE": "SPDSGN", "INSTYR": 2025, "ASSETSTAT": "INS", "LOCATION": "124 Montague Road", "MAINTBY": "HRM", "ADDDATE": 1762530823000, "MODDATE": 1762971398000, "SDATE": 1762387200000, "SOURCE": "Traffic Management", "SACC": "IN"}}, {"type": "Feature", "id": 26, "geometry": {"type": "Point", "coordinates": [-63.5511213479919, 44.7364724953193]}, "properties": {"OBJECTID": 26, "SUPPORTID": "SS106979", "LOCGEN": "ROW", "TYPEPOLE": "UNKNOWN", "POLEUSE": "SPL", "SIGNID": "SGN1746", "OWNER": "HRM", "SIGNTYPE": "SPDSGN", "INSTYR": 2023, "ASSETSTAT": "INS", "LOCATION": "Waverley Rd near civic 959 (inbound)", "MAINTBY": "HRM", "ADDDATE": 1680182198000, "MODDATE": 1680182198000, "SDATE": 1680048000000, "SOURCE": "CA", "SACC": "DG"}}, {"type": "Feature", "id": 27, "geometry": {"type": "Point", "coordinates": [-63.6820851450423, 44.6962030015867]}, "properties": {"OBJECTID": 27, "SUPPORTID": "SS103596", "LOCGEN": "ROW", "TYPEPOLE": "STANDARD", "POLEUSE": "LPL", "SIGNID": "SGN1698", "OWNER": "HRM", "SIGNTYPE": "SPDSGN", "INSTYR": null, "ASSETSTAT": "INS", "LOCATION": "458 Starboard Dr", "MAINTBY": "HRM", "ADDDATE": 1630680243000, "MODDATE": 1646914634000, "SDATE": 1630669535000, "SOURCE": "Traffic Management", "SACC": "DG"}}, {"type": "Feature", "id": 28, "geometry": {"type": "Point", "coordinates": [-63.6081805723446, 44.6619773121483]}, "properties": {"OBJECTID": 28, "SUPPORTID": "SS106562", "LOCGEN": "ROW", "TYPEPOLE": "STANDARD", "POLEUSE": "LPL", "SIGNID": "SGN1882", "OWNER": "HRM", "SIGNTYPE": "SPDSGN", "INSTYR": 2025, "ASSETSTAT": "INS", "LOCATION": "Massachusetts Avenue before Columbus Street", "MAINTBY": "HRM", "ADDDATE": 1762968290000, "MODDATE": 1762971414000, "SDATE": 1762387200000, "SOURCE": "Traffic Management", "SACC": "IN"}}, {"type": "Feature", "id": 29, "geometry": {"type": "Point", "coordinates": [-63.5453731569479, 44.7191125188385]}, "properties": {"OBJECTID": 29, "SUPPORTID": "SS107565", "LOCGEN": "ROW", "TYPEPOLE": null, "POLEUSE": "UTIL", "SIGNID": "SGN1878", "OWNER": "HRM", "SIGNTYPE": "SPDSGN", "INSTYR": 2025, "ASSETSTAT": "INS", "LOCATION": "464 Waverley Road", "MAINTBY": "HRM", "ADDDATE": 1762967779000, "MODDATE": 1762971410000, "SDATE": 1762387200000, "SOURCE": "Traffic Management", "SACC": "IN"}}, {"type": "Feature", "id": 30, "geometry": {"type": "Point", "coordinates": [-63.6133143112427, 44.6403166673252]}, "properties": {"OBJECTID": 30, "SUPPORTID": "SS106556", "LOCGEN": "ROW", "TYPEPOLE": "STANDARD", "POLEUSE": "UTIL", "SIGNID": "SGN1713", "OWNER": "HRM", "SIGNTYPE": "SPDSGN", "INSTYR": 2021, "ASSETSTAT": "DIS", "LOCATION": "7000 Quinpool Rd", "MAINTBY": "HRM", "ADDDATE": 1646833335000, "MODDATE": 1680113627000, "SDATE": null, "SOURCE": "CA", "SACC": "DG"}}, {"type": "Feature", "id": 31, "geometry": {"type": "Point", "coordinates": [-63.671116757644, 44.6959047793428]}, "properties": {"OBJECTID": 31, "SUPPORTID": "SS106467", "LOCGEN": "ROW", "TYPEPOLE": "STANDARD", "POLEUSE": "UTIL", "SIGNID": "SGN1697", "OWNER": "HRM", "SIGNTYPE": "SPDSGN", "INSTYR": 2021, "ASSETSTAT": "INS", "LOCATION": "151 Starboard Dr", "MAINTBY": "HRM", "ADDDATE": 1630679787000, "MODDATE": 1646918037000, "SDATE": 1630669589000, "SOURCE": "Traffic Management", "SACC": "DG"}}, {"type": "Feature", "id": 32, "geometry": {"type": "Point", "coordinates": [-63.5289573946499, 44.6748330232313]}, "properties": {"OBJECTID": 32, "SUPPORTID": "SS37999", "LOCGEN": "ROW", "TYPEPOLE": "STANDARD", "POLEUSE": "LPL", "SIGNID": "SGN1724", "OWNER": "HRM", "SIGNTYPE": "SPDSGN", "INSTYR": 2021, "ASSETSTAT": "DIS", "LOCATION": "98B Woodlawn Rd", "MAINTBY": "HRM", "ADDDATE": 1648745081000, "MODDATE": 1680113627000, "SDATE": null, "SOURCE": "CA", "SACC": "DG"}}, {"type": "Feature", "id": 33, "geometry": {"type": "Point", "coordinates": [-63.7772713925223, 44.6710909030014]}, "properties": {"OBJECTID": 33, "SUPPORTID": "SS106978", "LOCGEN": "ROW", "TYPEPOLE": "UNKNOWN", "POLEUSE": "SPL", "SIGNID": "SGN1742", "OWNER": "HRM", "SIGNTYPE": "SPDSGN", "INSTYR": 2023, "ASSETSTAT": "INS", "LOCATION": "3170 St Margarets Bay Rd, Inbound", "MAINTBY": "HRM", "ADDDATE": 1680180239000, "MODDATE": 1680180239000, "SDATE": 1680048000000, "SOURCE": "CA", "SACC": "DG"}}, {"type": "Feature", "id": 34, "geometry": {"type": "Point", "coordinates": [-63.5630122917123, 44.680123312301]}, "properties": {"OBJECTID": 34, "SUPPORTID": "SS30465", "LOCGEN": "ROW", "TYPEPOLE": "STANDARD", "POLEUSE": "LPL", "SIGNID": "SGN1875", "OWNER": "HRM", "SIGNTYPE": "SPDSGN", "INSTYR": 2025, "ASSETSTAT": "INS", "LOCATION": "183 Crichton Avenue", "MAINTBY": "HRM", "ADDDATE": 1762535189000, "MODDATE": 1762971404000, "SDATE": 1762387200000, "SOURCE": "Traffic Management", "SACC": "IN"}}, {"type": "Feature", "id": 35, "geometry": {"type": "Point", "coordinates": [-63.4597430940356, 44.6794358329879]}, "properties": {"OBJECTID": 35, "SUPPORTID": "SS107561", "LOCGEN": null, "TYPEPOLE": "STANDARD", "POLEUSE": "UTIL", "SIGNID": "SGN1873", "OWNER": "HRM", "SIGNTYPE": "SPDSGN", "INSTYR": 2025, "ASSETSTAT": "INS", "LOCATION": "1709 Cole Harbour Road", "MAINTBY": "HRM", "ADDDATE": 1762530015000, "MODDATE": 1762971396000, "SDATE": 1762387200000, "SOURCE": "Traffic Management", "SACC": "IN"}}, {"type": "Feature", "id": 36, "geometry": {"type": "Point", "coordinates": [-63.4823652815973, 44.6061205256953]}, "properties": {"OBJECTID": 36, "SUPPORTID": "SS106407", "LOCGEN": "ROW", "TYPEPOLE": "STANDARD", "POLEUSE": "UTIL", "SIGNID": "SGN1859", "OWNER": "HRM", "SIGNTYPE": "SPDSGN", "INSTYR": 2021, "ASSETSTAT": "INS", "LOCATION": "Shore Road at Oceanlea Drive", "MAINTBY": "HRM", "ADDDATE": 1762438112000, "MODDATE": 1762971370000, "SDATE": 1762387200000, "SOURCE": "Traffic Management", "SACC": "IN"}}, {"type": "Feature", "id": 37, "geometry": {"type": "Point", "coordinates": [-63.4823652815973, 44.6061205256953]}, "properties": {"OBJECTID": 37, "SUPPORTID": "SS106407", "LOCGEN": "ROW", "TYPEPOLE": "STANDARD", "POLEUSE": "UTIL", "SIGNID": "SGN1687", "OWNER": "HRM", "SIGNTYPE": "SPDSGN", "INSTYR": 2021, "ASSETSTAT": "INS", "LOCATION": "Shore Road at Oceanlea Drive", "MAINTBY": "HRM", "ADDDATE": 1622204291000, "MODDATE": 1646915950000, "SDATE": null, "SOURCE": "Traffic Management", "SACC": "DG"}}, {"type": "Feature", "id": 38, "geometry": {"type": "Point", "coordinates": [-63.4399818493126, 44.9923468874041]}, "properties": {"OBJECTID": 38, "SUPPORTID": "SS100235", "LOCGEN": "ROW", "TYPEPOLE": "STANDARD", "POLEUSE": "LPL", "SIGNID": "SGN1860", "OWNER": "HRM", "SIGNTYPE": "SPDSGN", "INSTYR": 2023, "ASSETSTAT": "INS", "LOCATION": "999 Dutch Settlement Road", "MAINTBY": "HRM", "ADDDATE": 1762438560000, "MODDATE": 1762971370000, "SDATE": 1762387200000, "SOURCE": "Traffic Management", "SACC": "IN"}}, {"type": "Feature", "id": 39, "geometry": {"type": "Point", "coordinates": [-63.4399818493126, 44.9923468874041]}, "properties": {"OBJECTID": 39, "SUPPORTID": "SS100235", "LOCGEN": "ROW", "TYPEPOLE": "STANDARD", "POLEUSE": "LPL", "SIGNID": "SGN1747", "OWNER": "HRM", "SIGNTYPE": "SPDSGN", "INSTYR": 2023, "ASSETSTAT": "INS", "LOCATION": "999 Dutch Settlement Rd", "MAINTBY": "HRM", "ADDDATE": 1680185972000, "MODDATE": 1680185972000, "SDATE": 1680048000000, "SOURCE": "CA", "SACC": "DG"}}, {"type": "Feature", "id": 40, "geometry": {"type": "Point", "coordinates": [-63.4419502647127, 44.9902932056023]}, "properties": {"OBJECTID": 40, "SUPPORTID": "SS106980", "LOCGEN": "ROW", "TYPEPOLE": "UNKNOWN", "POLEUSE": "SPL", "SIGNID": "SGN1861", "OWNER": "HRM", "SIGNTYPE": "SPDSGN", "INSTYR": 2023, "ASSETSTAT": "INS", "LOCATION": "950 Dutch Settlement Road", "MAINTBY": "HRM", "ADDDATE": 1762439095000, "MODDATE": 1762971370000, "SDATE": 1762387200000, "SOURCE": "Traffic Management", "SACC": "IN"}}, {"type": "Feature", "id": 41, "geometry": {"type": "Point", "coordinates": [-63.4419502647127, 44.9902932056023]}, "properties": {"OBJECTID": 41, "SUPPORTID": "SS106980", "LOCGEN": "ROW", "TYPEPOLE": "UNKNOWN", "POLEUSE": "SPL", "SIGNID": "SGN1748", "OWNER": "HRM", "SIGNTYPE": "SPDSGN", "INSTYR": 2023, "ASSETSTAT": "INS", "LOCATION": "950 Dutch Settlement Rd", "MAINTBY": "HRM", "ADDDATE": 1680186674000, "MODDATE": 1680186674000, "SDATE": 1680048000000, "SOURCE": "CA", "SACC": "DG"}}, {"type": "Feature", "id": 42, "geometry": {"type": "Point", "coordinates": [-63.5980261771714, 44.6675031254645]}, "properties": {"OBJECTID": 42, "SUPPORTID": "SS9733", "LOCGEN": "ROW", "TYPEPOLE": "STANDARD", "POLEUSE": "LPL", "SIGNID": "SGN1881", "OWNER": "HRM", "SIGNTYPE": "SPDSGN", "INSTYR": 2025, "ASSETSTAT": "INS", "LOCATION": "3260 Barrington Street", "MAINTBY": "HRM", "ADDDATE": 1762968184000, "MODDATE": 1762971413000, "SDATE": 1762387200000, "SOURCE": "Traffic Management", "SACC": "IN"}}, {"type": "Feature", "id": 43, "geometry": {"type": "Point", "coordinates": [-63.5495384230365, 44.7066595840112]}, "properties": {"OBJECTID": 43, "SUPPORTID": "SS106554", "LOCGEN": "ROW", "TYPEPOLE": "STANDARD", "POLEUSE": "UTIL", "SIGNID": "SGN1712", "OWNER": "HRM", "SIGNTYPE": "SPDSGN", "INSTYR": 2021, "ASSETSTAT": "DIS", "LOCATION": "319 Waverley Rd", "MAINTBY": "HRM", "ADDDATE": 1646833077000, "MODDATE": 1680113627000, "SDATE": null, "SOURCE": "CA", "SACC": "DG"}}, {"type": "Feature", "id": 44, "geometry": {"type": "Point", "coordinates": [-63.7389612657906, 44.6589591468504]}, "properties": {"OBJECTID": 44, "SUPPORTID": "SS19092", "LOCGEN": "ROW", "TYPEPOLE": "STANDARD", "POLEUSE": "LPL", "SIGNID": "SGN1890", "OWNER": "HRM", "SIGNTYPE": "SPDSGN", "INSTYR": 2025, "ASSETSTAT": "INS", "LOCATION": "2410 St Margarets Bay Road", "MAINTBY": "HRM", "ADDDATE": 1762969174000, "MODDATE": 1762971426000, "SDATE": 1762387200000, "SOURCE": "Traffic Management", "SACC": "IN"}}, {"type": "Feature", "id": 45, "geometry": {"type": "Point", "coordinates": [-63.631304610028, 44.5998333815853]}, "properties": {"OBJECTID": 45, "SUPPORTID": "SS103820", "LOCGEN": "ROW", "TYPEPOLE": "STANDARD", "POLEUSE": "LPL", "SIGNID": "SGN1744", "OWNER": "HRM", "SIGNTYPE": "SPDSGN", "INSTYR": 2023, "ASSETSTAT": "INS", "LOCATION": "Leiblin Drive near Civic 110", "MAINTBY": "HRM", "ADDDATE": 1680180742000, "MODDATE": 1680180742000, "SDATE": 1680048000000, "SOURCE": "CA", "SACC": "DG"}}, {"type": "Feature", "id": 46, "geometry": {"type": "Point", "coordinates": [-63.3845630052626, 44.6961179543907]}, "properties": {"OBJECTID": 46, "SUPPORTID": "SS107560", "LOCGEN": "ROW", "TYPEPOLE": "STANDARD", "POLEUSE": "UTIL", "SIGNID": "SGN1870", "OWNER": "HRM", "SIGNTYPE": "SPDSGN", "INSTYR": 2025, "ASSETSTAT": "INS", "LOCATION": "829 Mineville Road", "MAINTBY": "HRM", "ADDDATE": 1762451102000, "MODDATE": 1762971392000, "SDATE": 1762387200000, "SOURCE": "Traffic Management", "SACC": "IN"}}, {"type": "Feature", "id": 47, "geometry": {"type": "Point", "coordinates": [-63.5145254529607, 44.6776980378661]}, "properties": {"OBJECTID": 47, "SUPPORTID": "SS41028", "LOCGEN": "ROW", "TYPEPOLE": "STANDARD", "POLEUSE": "LPL", "SIGNID": "SGN1866", "OWNER": "HRM", "SIGNTYPE": "SPDSGN", "INSTYR": 2023, "ASSETSTAT": "INS", "LOCATION": "111 Dorothea Drive", "MAINTBY": "HRM", "ADDDATE": 1762443629000, "MODDATE": 1762971385000, "SDATE": 1762387200000, "SOURCE": "Traffic Management", "SACC": "IN"}}, {"type": "Feature", "id": 48, "geometry": {"type": "Point", "coordinates": [-63.7079084252201, 44.7063929781223]}, "properties": {"OBJECTID": 48, "SUPPORTID": "SS107570", "LOCGEN": "ROW", "TYPEPOLE": "STANDARD", "POLEUSE": "UTIL", "SIGNID": "SGN1898", "OWNER": "HRM", "SIGNTYPE": "SPDSGN", "INSTYR": 2025, "ASSETSTAT": "INS", "LOCATION": "Larry Uteck Boulevard after Broad Street south", "MAINTBY": "HRM", "ADDDATE": 1762970469000, "MODDATE": 1762971439000, "SDATE": 1762387200000, "SOURCE": "Traffic Management", "SACC": "IN"}}, {"type": "Feature", "id": 49, "geometry": {"type": "Point", "coordinates": [-63.648201324041, 44.6533382881766]}, "properties": {"OBJECTID": 49, "SUPPORTID": "SS103720", "LOCGEN": "ROW", "TYPEPOLE": "STANDARD", "POLEUSE": "LPL", "SIGNID": "SGN1886", "OWNER": "HRM", "SIGNTYPE": "SPDSGN", "INSTYR": 2025, "ASSETSTAT": "INS", "LOCATION": "240 Main Ave", "MAINTBY": "HRM", "ADDDATE": 1762968703000, "MODDATE": 1762971420000, "SDATE": 1762387200000, "SOURCE": "Traffic Management", "SACC": "IN"}}, {"type": "Feature", "id": 50, "geometry": {"type": "Point", "coordinates": [-63.7973663164576, 44.7352962609692]}, "properties": {"OBJECTID": 50, "SUPPORTID": "SS11648", "LOCGEN": "ROW", "TYPEPOLE": "STANDARD", "POLEUSE": "LPL", "SIGNID": "SGN1743", "OWNER": "HRM", "SIGNTYPE": "SPDSGN", "INSTYR": 2023, "ASSETSTAT": "INS", "LOCATION": "Hammonds Plains Road before Pockwock Road", "MAINTBY": "HRM", "ADDDATE": 1680180512000, "MODDATE": 1680180512000, "SDATE": 1680048000000, "SOURCE": "CA", "SACC": "DG"}}, {"type": "Feature", "id": 51, "geometry": {"type": "Point", "coordinates": [-63.6700882162881, 44.6606359194215]}, "properties": {"OBJECTID": 51, "SUPPORTID": "SS21811", "LOCGEN": "ROW", "TYPEPOLE": "STANDARD", "POLEUSE": "LPL", "SIGNID": "SGN1717", "OWNER": "HRM", "SIGNTYPE": "SPDSGN", "INSTYR": 2021, "ASSETSTAT": "DIS", "LOCATION": "Between 51 & 81 Parkland Dr", "MAINTBY": "HRM", "ADDDATE": 1646834989000, "MODDATE": 1680113627000, "SDATE": null, "SOURCE": "CA", "SACC": "DG"}}, {"type": "Feature", "id": 52, "geometry": {"type": "Point", "coordinates": [-63.6837230136554, 44.7761740961573]}, "properties": {"OBJECTID": 52, "SUPPORTID": "SS17647", "LOCGEN": "ROW", "TYPEPOLE": "STANDARD", "POLEUSE": "LPL", "SIGNID": "SGN1862", "OWNER": "HRM", "SIGNTYPE": "SPDSGN", "INSTYR": 2021, "ASSETSTAT": "INS", "LOCATION": "1271 Riverside Drive", "MAINTBY": "HRM", "ADDDATE": 1762439324000, "MODDATE": 1762971381000, "SDATE": 1762387200000, "SOURCE": "Traffic Management", "SACC": "IN"}}, {"type": "Feature", "id": 53, "geometry": {"type": "Point", "coordinates": [-63.6837230136554, 44.7761740961573]}, "properties": {"OBJECTID": 53, "SUPPORTID": "SS17647", "LOCGEN": "ROW", "TYPEPOLE": "STANDARD", "POLEUSE": "LPL", "SIGNID": "SGN1719", "OWNER": "HRM", "SIGNTYPE": "SPDSGN", "INSTYR": 2021, "ASSETSTAT": "INS", "LOCATION": "1271 Riverside Dr", "MAINTBY": "HRM", "ADDDATE": 1646836304000, "MODDATE": 1646836304000, "SDATE": null, "SOURCE": "CA", "SACC": "DG"}}, {"type": "Feature", "id": 54, "geometry": {"type": "Point", "coordinates": [-63.5426808997532, 44.697692091753]}, "properties": {"OBJECTID": 54, "SUPPORTID": "SS106409", "LOCGEN": "ROW", "TYPEPOLE": "STANDARD", "POLEUSE": "SPL", "SIGNID": "SGN1863", "OWNER": "HRM", "SIGNTYPE": "SPDSGN", "INSTYR": 2021, "ASSETSTAT": "INS", "LOCATION": "37 Montebello Drive", "MAINTBY": "HRM", "ADDDATE": 1762439502000, "MODDATE": 1762971370000, "SDATE": 1762387200000, "SOURCE": "Traffic Management", "SACC": "IN"}}, {"type": "Feature", "id": 55, "geometry": {"type": "Point", "coordinates": [-63.5426808997532, 44.697692091753]}, "properties": {"OBJECTID": 55, "SUPPORTID": "SS106409", "LOCGEN": "ROW", "TYPEPOLE": "STANDARD", "POLEUSE": "SPL", "SIGNID": "SGN1689", "OWNER": "HRM", "SIGNTYPE": "SPDSGN", "INSTYR": 2021, "ASSETSTAT": "INS", "LOCATION": "37 Montebello Dr", "MAINTBY": "HRM", "ADDDATE": 1622207018000, "MODDATE": 1646917014000, "SDATE": null, "SOURCE": "Traffic Management", "SACC": "DG"}}, {"type": "Feature", "id": 56, "geometry": {"type": "Point", "coordinates": [-63.6166659821616, 44.8115360743574]}, "properties": {"OBJECTID": 56, "SUPPORTID": "SS3322", "LOCGEN": "ROW", "TYPEPOLE": "STANDARD", "POLEUSE": "LPL", "SIGNID": "SGN1867", "OWNER": "HRM", "SIGNTYPE": "SPDSGN", "INSTYR": 2025, "ASSETSTAT": "INS", "LOCATION": "1303 Fall River Road", "MAINTBY": "HRM", "ADDDATE": 1762443752000, "MODDATE": 1762971386000, "SDATE": 1762387200000, "SOURCE": "Traffic Management", "SACC": "IN"}}, {"type": "Feature", "id": 57, "geometry": {"type": "Point", "coordinates": [-63.5418533285944, 44.6448508680403]}, "properties": {"OBJECTID": 57, "SUPPORTID": "SS31287", "LOCGEN": "ROW", "TYPEPOLE": "STANDARD", "POLEUSE": "LPL", "SIGNID": "SGN1872", "OWNER": "HRM", "SIGNTYPE": "SPDSGN", "INSTYR": 2025, "ASSETSTAT": "INS", "LOCATION": "527 Pleasant Street", "MAINTBY": "HRM", "ADDDATE": 1762526921000, "MODDATE": 1762971395000, "SDATE": 1762387200000, "SOURCE": "Traffic Management", "SACC": "IN"}}, {"type": "Feature", "id": 58, "geometry": {"type": "Point", "coordinates": [-63.9219774946183, 44.6774659634295]}, "properties": {"OBJECTID": 58, "SUPPORTID": "SS107568", "LOCGEN": null, "TYPEPOLE": "STANDARD", "POLEUSE": "UTIL", "SIGNID": "SGN1892", "OWNER": "HRM", "SIGNTYPE": "SPDSGN", "INSTYR": 2025, "ASSETSTAT": "INS", "LOCATION": "6384 St Margarets Bay Road", "MAINTBY": "HRM", "ADDDATE": 1762969538000, "MODDATE": 1762971429000, "SDATE": 1762387200000, "SOURCE": "Traffic Management", "SACC": "IN"}}, {"type": "Feature", "id": 59, "geometry": {"type": "Point", "coordinates": [-63.3725684300945, 44.7358542548717]}, "properties": {"OBJECTID": 59, "SUPPORTID": "SS107559", "LOCGEN": "ROW", "TYPEPOLE": "STANDARD", "POLEUSE": "UTIL", "SIGNID": "SGN1869", "OWNER": "HRM", "SIGNTYPE": "SPDSGN", "INSTYR": 2025, "ASSETSTAT": "INS", "LOCATION": "3455 Highway 7", "MAINTBY": "HRM", "ADDDATE": 1762445672000, "MODDATE": 1762971389000, "SDATE": 1762387200000, "SOURCE": "Traffic Management", "SACC": "IN"}}, {"type": "Feature", "id": 60, "geometry": {"type": "Point", "coordinates": [-63.6125655654534, 44.6072506174278]}, "properties": {"OBJECTID": 60, "SUPPORTID": "SS38765", "LOCGEN": "ROW", "TYPEPOLE": "STANDARD", "POLEUSE": "LPL", "SIGNID": "SGN1887", "OWNER": "HRM", "SIGNTYPE": "SPDSGN", "INSTYR": 2025, "ASSETSTAT": "INS", "LOCATION": "19 Drysdale Road", "MAINTBY": "HRM", "ADDDATE": 1762968783000, "MODDATE": 1762971421000, "SDATE": 1762387200000, "SOURCE": "Traffic Management", "SACC": "IN"}}, {"type": "Feature", "id": 61, "geometry": {"type": "Point", "coordinates": [-63.7943589967365, 44.7369354863012]}, "properties": {"OBJECTID": 61, "SUPPORTID": "SS106559", "LOCGEN": "ROW", "TYPEPOLE": "STANDARD", "POLEUSE": "UTIL", "SIGNID": "SGN1718", "OWNER": "HRM", "SIGNTYPE": "SPDSGN", "INSTYR": 2021, "ASSETSTAT": "DIS", "LOCATION": "37 Pockwock Rd", "MAINTBY": "HRM", "ADDDATE": 1646835118000, "MODDATE": 1680113627000, "SDATE": null, "SOURCE": "CA", "SACC": "DG"}}, {"type": "Feature", "id": 62, "geometry": {"type": "Point", "coordinates": [-63.6646471385785, 44.6817303207097]}, "properties": {"OBJECTID": 62, "SUPPORTID": "SS24219", "LOCGEN": "ROW", "TYPEPOLE": "STANDARD", "POLEUSE": "LPL", "SIGNID": "SGN1885", "OWNER": "HRM", "SIGNTYPE": "SPDSGN", "INSTYR": 2025, "ASSETSTAT": "INS", "LOCATION": "41 Kearney Lake Road", "MAINTBY": "HRM", "ADDDATE": 1762968543000, "MODDATE": 1762971419000, "SDATE": 1762387200000, "SOURCE": "Traffic Management", "SACC": "IN"}}, {"type": "Feature", "id": 63, "geometry": {"type": "Point", "coordinates": [-63.6803305726973, 44.7931749210321]}, "properties": {"OBJECTID": 63, "SUPPORTID": "SS6326", "LOCGEN": "ROW", "TYPEPOLE": "STANDARD", "POLEUSE": "LPL", "SIGNID": "SGN1896", "OWNER": "HRM", "SIGNTYPE": "SPDSGN", "INSTYR": 2025, "ASSETSTAT": "INS", "LOCATION": "767 Windgate Drive", "MAINTBY": "HRM", "ADDDATE": 1762970002000, "MODDATE": 1762971436000, "SDATE": 1762387200000, "SOURCE": "Traffic Management", "SACC": "IN"}}, {"type": "Feature", "id": 64, "geometry": {"type": "Point", "coordinates": [-63.6437282062028, 44.6677494541894]}, "properties": {"OBJECTID": 64, "SUPPORTID": "SS25703", "LOCGEN": "ROW", "TYPEPOLE": "STANDARD", "POLEUSE": "LPL", "SIGNID": "SGN1864", "OWNER": "HRM", "SIGNTYPE": "SPDSGN", "INSTYR": 2023, "ASSETSTAT": "INS", "LOCATION": "73 Bayview Road", "MAINTBY": "HRM", "ADDDATE": 1762443274000, "MODDATE": 1762971382000, "SDATE": 1762387200000, "SOURCE": "Traffic Management", "SACC": "IN"}}, {"type": "Feature", "id": 65, "geometry": {"type": "Point", "coordinates": [-63.6437282062028, 44.6677494541894]}, "properties": {"OBJECTID": 65, "SUPPORTID": "SS25703", "LOCGEN": "ROW", "TYPEPOLE": "STANDARD", "POLEUSE": "LPL", "SIGNID": "SGN1737", "OWNER": "HRM", "SIGNTYPE": "SPDSGN", "INSTYR": 2023, "ASSETSTAT": "INS", "LOCATION": "73 Bayview Road", "MAINTBY": "HRM", "ADDDATE": 1680178076000, "MODDATE": 1680178076000, "SDATE": 1680048000000, "SOURCE": "CA", "SACC": "DG"}}, {"type": "Feature", "id": 66, "geometry": {"type": "Point", "coordinates": [-63.6506970433262, 44.6734530465331]}, "properties": {"OBJECTID": 66, "SUPPORTID": "SS24780", "LOCGEN": "ROW", "TYPEPOLE": "STANDARD", "POLEUSE": "LPL", "SIGNID": "SGN1865", "OWNER": "HRM", "SIGNTYPE": "SPDSGN", "INSTYR": 2023, "ASSETSTAT": "INS", "LOCATION": "28 Flamingo Drive", "MAINTBY": null, "ADDDATE": 1762443467000, "MODDATE": 1762971384000, "SDATE": 1762387200000, "SOURCE": "Traffic Management", "SACC": "IN"}}, {"type": "Feature", "id": 67, "geometry": {"type": "Point", "coordinates": [-63.6506970433262, 44.6734530465331]}, "properties": {"OBJECTID": 67, "SUPPORTID": "SS24780", "LOCGEN": "ROW", "TYPEPOLE": "STANDARD", "POLEUSE": "LPL", "SIGNID": "SGN1736", "OWNER": "HRM", "SIGNTYPE": "SPDSGN", "INSTYR": 2023, "ASSETSTAT": "INS", "LOCATION": "28 Flamingo Drive", "MAINTBY": "HRM", "ADDDATE": 1680177816000, "MODDATE": 1680177816000, "SDATE": 1680048000000, "SOURCE": "CA", "SACC": "DG"}}, {"type": "Feature", "id": 68, "geometry": {"type": "Point", "coordinates": [-63.6414406849594, 44.6622793350394]}, "properties": {"OBJECTID": 68, "SUPPORTID": "SS25246", "LOCGEN": "ROW", "TYPEPOLE": "STANDARD", "POLEUSE": "LPL", "SIGNID": "SGN1714", "OWNER": "HRM", "SIGNTYPE": "SPDSGN", "INSTYR": 2021, "ASSETSTAT": "DIS", "LOCATION": "72 Lacewood Dr", "MAINTBY": null, "ADDDATE": 1646833622000, "MODDATE": 1680113627000, "SDATE": null, "SOURCE": "CA", "SACC": "DG"}}, {"type": "Feature", "id": 69, "geometry": {"type": "Point", "coordinates": [-63.6923395640292, 44.638241489253]}, "properties": {"OBJECTID": 69, "SUPPORTID": "SS106558", "LOCGEN": "ROW", "TYPEPOLE": "STANDARD", "POLEUSE": "UTIL", "SIGNID": "SGN1716", "OWNER": "HRM", "SIGNTYPE": "SPDSGN", "INSTYR": 2021, "ASSETSTAT": "DIS", "LOCATION": "1357 St Margarets Bay Rd", "MAINTBY": "HRM", "ADDDATE": 1646834024000, "MODDATE": 1680113627000, "SDATE": null, "SOURCE": "CA", "SACC": "DG"}}, {"type": "Feature", "id": 70, "geometry": {"type": "Point", "coordinates": [-63.5921259777066, 44.6348453248536]}, "properties": {"OBJECTID": 70, "SUPPORTID": "SS2342", "LOCGEN": "ROW", "TYPEPOLE": "STANDARD", "POLEUSE": "LPL", "SIGNID": "SGN1880", "OWNER": "HRM", "SIGNTYPE": "SPDSGN", "INSTYR": 2025, "ASSETSTAT": "INS", "LOCATION": "South Street by Dalplex", "MAINTBY": "HRM", "ADDDATE": 1762968099000, "MODDATE": 1762971412000, "SDATE": 1762387200000, "SOURCE": "Traffic Management", "SACC": "IN"}}, {"type": "Feature", "id": 71, "geometry": {"type": "Point", "coordinates": [-63.5998412833901, 44.7871290495213]}, "properties": {"OBJECTID": 71, "SUPPORTID": "SS106553", "LOCGEN": "ROW", "TYPEPOLE": "STANDARD", "POLEUSE": "UTIL", "SIGNID": "SGN1711", "OWNER": "HRM", "SIGNTYPE": "SPDSGN", "INSTYR": 2021, "ASSETSTAT": "DIS", "LOCATION": "2455 Waverley Rd", "MAINTBY": "HRM", "ADDDATE": 1646832271000, "MODDATE": 1680113627000, "SDATE": null, "SOURCE": "CA", "SACC": "DG"}}, {"type": "Feature", "id": 72, "geometry": {"type": "Point", "coordinates": [-63.7173423993832, 44.7723540069582]}, "properties": {"OBJECTID": 72, "SUPPORTID": "SS1399", "LOCGEN": "ROW", "TYPEPOLE": "STANDARD", "POLEUSE": "LPL", "SIGNID": "SGN1893", "OWNER": "HRM", "SIGNTYPE": "SPDSGN", "INSTYR": 2025, "ASSETSTAT": "INS", "LOCATION": "315 Lucasville Road\r\n", "MAINTBY": "HRM", "ADDDATE": 1762969627000, "MODDATE": 1762971431000, "SDATE": 1762387200000, "SOURCE": "Traffic Management", "SACC": "IN"}}, {"type": "Feature", "id": 73, "geometry": {"type": "Point", "coordinates": [-63.6921600662624, 44.7861369325953]}, "properties": {"OBJECTID": 73, "SUPPORTID": "SS107569", "LOCGEN": null, "TYPEPOLE": "STANDARD", "POLEUSE": "UTIL", "SIGNID": "SGN1895", "OWNER": "HRM", "SIGNTYPE": "SPDSGN", "INSTYR": 2025, "ASSETSTAT": "INS", "LOCATION": "126 Beaver Bank Road", "MAINTBY": "HRM", "ADDDATE": 1762969926000, "MODDATE": 1762971435000, "SDATE": 1762387200000, "SOURCE": "Traffic Management", "SACC": "IN"}}]}